{'address': 'Rua Luíz Martins', 'neighborhood': 'Vila Santa Rita', 'state': 'SP', 'abbreviation_country': 'BR', 'abbreviation_state': 'SP', 'locality': 'São José dos Campos', 'type': 'postal_code', 'lng': -45.9069795, 'postal_code': '12242320', 'lat': -23.194551, 'country': 'Brazil'},
{'address': 'Rua Luís Murat', 'neighborhood': 'Vila Sinhá', 'state': 'SP', 'abbreviation_country': 'BR', 'abbreviation_state': 'SP', 'locality': 'São José dos Campos', 'type': 'postal_code', 'lng': -45.9053247, 'postal_code': '12212653', 'lat': -23.1573954, 'country': 'Brazil'},
{'address': 'Rua Luiz Pereira Leite', 'neighborhood': 'Vila Iracema', 'state': 'SP', 'abbreviation_country': 'BR', 'abbreviation_state': 'SP', 'locality': 'São José dos Campos', 'type': 'postal_code', 'lng': -45.822895, 'postal_code': '12228313', 'lat': -23.2391108, 'country': 'Brazil'},
{'address': 'Rua Luiz Reis', 'neighborhood': 'Jardim Oriente', 'state': 'SP', 'abbreviation_country': 'BR', 'abbreviation_state': 'SP', 'locality': 'São José dos Campos', 'type': 'postal_code', 'lng': -45.8991402, 'postal_code': '12236310', 'lat': -23.2444261, 'country': 'Brazil'},
{'address': 'Rua Luiz Roberto Garcia Tavares', 'neighborhood': 'Residencial Bosque dos Ipês', 'state': 'SP', 'abbreviation_country': 'BR', 'abbreviation_state': 'SP', 'locality': 'São José dos Campos', 'type': 'postal_code', 'lng': -45.8958808, 'postal_code': '12236868', 'lat': -23.2614114, 'country': 'Brazil'},
{'address': 'Rua Luiz Roberto Rodrigues', 'neighborhood': 'Jardim Torrao de Ouro', 'state': 'SP', 'abbreviation_country': 'BR', 'abbreviation_state': 'SP', 'locality': 'São José dos Campos', 'type': 'postal_code', 'lng': -45.8659012, 'postal_code': '12229330', 'lat': -23.2728308, 'country': 'Brazil'},
{'locality': 'São Paulo', 'postal_code': '12234790', 'state': 'SP', 'abbreviation_country': 'BR', 'type': 'postal_code', 'lng': -46.63330939999999, 'abbreviation_state': 'SP', 'lat': -23.5505199, 'country': 'Brazil'},
{'address': 'Rua Luís Rufa', 'neighborhood': 'Jardim San Marino', 'state': 'SP', 'abbreviation_country': 'BR', 'abbreviation_state': 'SP', 'locality': 'São José dos Campos', 'type': 'postal_code', 'lng': -45.8962313, 'postal_code': '12235850', 'lat': -23.2286167, 'country': 'Brazil'},
{'address': 'Praça Luiz Vaz de Camões', 'neighborhood': 'Jardim Oriente', 'state': 'SP', 'abbreviation_country': 'BR', 'abbreviation_state': 'SP', 'locality': 'São José dos Campos', 'type': 'postal_code', 'lng': -45.8991037, 'postal_code': '12236381', 'lat': -23.242038, 'country': 'Brazil'},
{'address': 'Rua Luiz Veneziani', 'neighborhood': 'Parque Interlagos', 'state': 'SP', 'abbreviation_country': 'BR', 'abbreviation_state': 'SP', 'locality': 'São José dos Campos', 'type': 'postal_code', 'lng': -45.8661305, 'postal_code': '12229834', 'lat': -23.2754864, 'country': 'Brazil'},
{'address': 'Travessa Doutor Luis de Azevedo Castro', 'neighborhood': 'Jardim Paulista', 'state': 'SP', 'abbreviation_country': 'BR', 'abbreviation_state': 'SP', 'locality': 'São José dos Campos', 'type': 'postal_code', 'lng': -45.8790522, 'postal_code': '12216081', 'lat': -23.1912927, 'country': 'Brazil'},
{'address': 'Rua Luís de Oliveira Ruivo', 'neighborhood': 'Vila das Flores', 'state': 'SP', 'abbreviation_country': 'BR', 'abbreviation_state': 'SP', 'type': 'postal_code', 'lng': -45.8877058, 'postal_code': '12234774', 'lat': -23.2911574, 'country': 'Brazil'},
{'address': 'Rua Luiz de Oliveira da Silva', 'neighborhood': 'Cidade Morumbi', 'state': 'SP', 'abbreviation_country': 'BR', 'abbreviation_state': 'SP', 'locality': 'São José dos Campos', 'type': 'postal_code', 'lng': -45.902741, 'postal_code': '12236520', 'lat': -23.2453137, 'country': 'Brazil'},
{'address': 'Rua Luis de Paula Souza', 'neighborhood': 'Residencial Armando Moreira Righi', 'state': 'SP', 'abbreviation_country': 'BR', 'abbreviation_state': 'SP', 'locality': 'São José dos Campos', 'type': 'postal_code', 'lng': -45.767435, 'postal_code': '12247804', 'lat': -23.1373935, 'country': 'Brazil'},
{'address': 'Rua Luiza dos Santos Bernardes', 'neighborhood': 'Jardim Santo Onofre', 'state': 'SP', 'abbreviation_country': 'BR', 'abbreviation_state': 'SP', 'locality': 'São José dos Campos', 'type': 'postal_code', 'lng': -45.8303886, 'postal_code': '12228015', 'lat': -23.2479075, 'country': 'Brazil'},
{'address': 'Rua Lupicínio Rodrigues', 'neighborhood': 'ヴィーラ・ド・テゾウロ', 'state': 'SP', 'abbreviation_country': 'BR', 'abbreviation_state': 'SP', 'locality': 'São José dos Campos', 'type': 'postal_code', 'lng': -45.8392349, 'postal_code': '12221590', 'lat': -23.167777, 'country': 'Brazil'},
{'address': 'Rua Lupus', 'neighborhood': 'Jardim da Granja', 'state': 'SP', 'abbreviation_country': 'BR', 'abbreviation_state': 'SP', 'locality': 'São José dos Campos', 'type': 'postal_code', 'lng': -45.8583976, 'postal_code': '12227400', 'lat': -23.2051851, 'country': 'Brazil'},
{'address': 'Rua Lupércio Antônio dos Santos', 'neighborhood': 'Vila Betania', 'state': 'SP', 'abbreviation_country': 'BR', 'abbreviation_state': 'SP', 'locality': 'São José dos Campos', 'type': 'postal_code', 'lng': -45.8863421, 'postal_code': '12245521', 'lat': -23.2021226, 'country': 'Brazil'},
{'address': 'Rua Lupércio Ramos', 'neighborhood': 'Monte Castelo', 'state': 'SP', 'abbreviation_country': 'BR', 'abbreviation_state': 'SP', 'locality': 'São José dos Campos', 'type': 'postal_code', 'lng': -45.8698389, 'postal_code': '12215500', 'lat': -23.1832768, 'country': 'Brazil'},
{'address': 'Rua Lupércio da Costa Machado', 'neighborhood': 'ヴィーラ・ド・テゾウロ', 'state': 'SP', 'abbreviation_country': 'BR', 'abbreviation_state': 'SP', 'locality': 'São José dos Campos', 'type': 'postal_code', 'lng': -45.8436327, 'postal_code': '12221430', 'lat': -23.1699384, 'country': 'Brazil'},
{'address': 'Praça Luzia Aparecida Vilela', 'neighborhood': 'Parque Residencial Aquarius', 'state': 'SP', 'abbreviation_country': 'BR', 'abbreviation_state': 'SP', 'locality': 'São José dos Campos', 'type': 'postal_code', 'lng': -45.9107134, 'postal_code': '12246854', 'lat': -23.2188167, 'country': 'Brazil'},
{'locality': 'São Paulo', 'postal_code': '12228281', 'state': 'SP', 'abbreviation_country': 'BR', 'type': 'postal_code', 'lng': -46.63330939999999, 'abbreviation_state': 'SP', 'lat': -23.5505199, 'country': 'Brazil'},
{'address': 'Rua Luzia Menezes de Carvalho Cordeiro', 'neighborhood': 'Residencial de Ville', 'state': 'SP', 'abbreviation_country': 'BR', 'abbreviation_state': 'SP', 'locality': 'São José dos Campos', 'type': 'postal_code', 'lng': -45.9169056, 'postal_code': '12237871', 'lat': -23.2511551, 'country': 'Brazil'},
{'address': 'Rua Luzinete Maria dos Santos Soares', 'postal_code': '12232419', 'state': 'SP', 'abbreviation_country': 'BR', 'type': 'postal_code', 'lng': -45.8858472, 'abbreviation_state': 'SP', 'lat': -23.2781152, 'country': 'Brazil'},
{'address': 'Rua Luís Gama', 'neighborhood': 'Vila Alexandrina', 'state': 'SP', 'abbreviation_country': 'BR', 'abbreviation_state': 'SP', 'locality': 'São José dos Campos', 'type': 'postal_code', 'lng': -45.8948247, 'postal_code': '12211200', 'lat': -23.165313, 'country': 'Brazil'},
{'address': 'Rua Luís Gonzaga', 'neighborhood': 'Cantinho do Céu', 'state': 'SP', 'abbreviation_country': 'BR', 'abbreviation_state': 'SP', 'locality': 'São Paulo', 'type': 'postal_code', 'lng': -46.65947269999999, 'postal_code': '12234262', 'lat': -23.739315, 'country': 'Brazil'},
{'locality': 'São Paulo', 'postal_code': '12228317', 'state': 'SP', 'abbreviation_country': 'BR', 'type': 'postal_code', 'lng': -46.63330939999999, 'abbreviation_state': 'SP', 'lat': -23.5505199, 'country': 'Brazil'},
{'address': 'Praça Tenório de Aguiar', 'neighborhood': 'Santana', 'state': 'SP', 'abbreviation_country': 'BR', 'abbreviation_state': 'SP', 'locality': 'São Paulo', 'type': 'postal_code', 'lng': -46.6195519, 'postal_code': '12211623', 'lat': -23.4988439, 'country': 'Brazil'},
{'address': 'Rua Lázaro Caetano da Costa', 'neighborhood': 'Conjunto Residencial Vila Leila', 'state': 'SP', 'abbreviation_country': 'BR', 'abbreviation_state': 'SP', 'locality': 'São José dos Campos', 'type': 'postal_code', 'lng': -45.90497509999999, 'postal_code': '12212479', 'lat': -23.1545886, 'country': 'Brazil'},
{'address': 'Rua Lázaro Floriano Barbosa', 'neighborhood': 'Jardim Santa Inês I', 'state': 'SP', 'abbreviation_country': 'BR', 'abbreviation_state': 'SP', 'locality': 'São José dos Campos', 'type': 'postal_code', 'lng': -45.7947321, 'postal_code': '12248410', 'lat': -23.1746614, 'country': 'Brazil'},
{'locality': 'São Paulo', 'postal_code': '12213254', 'state': 'SP', 'abbreviation_country': 'BR', 'type': 'postal_code', 'lng': -46.63330939999999, 'abbreviation_state': 'SP', 'lat': -23.5505199, 'country': 'Brazil'},
{'address': 'Rua Léa Maria Brandão Russo', 'neighborhood': 'Jardim Satélite', 'state': 'SP', 'abbreviation_country': 'BR', 'abbreviation_state': 'SP', 'locality': 'São José dos Campos', 'type': 'postal_code', 'lng': -45.8781117, 'postal_code': '12231820', 'lat': -23.2324932, 'country': 'Brazil'},
{'locality': 'São Paulo', 'postal_code': '12213538', 'state': 'SP', 'abbreviation_country': 'BR', 'type': 'postal_code', 'lng': -46.63330939999999, 'abbreviation_state': 'SP', 'lat': -23.5505199, 'country': 'Brazil'},
{'address': 'Rua Lúcio Alves', 'neighborhood': 'Campo dos Alemães', 'state': 'SP', 'abbreviation_country': 'BR', 'abbreviation_state': 'SP', 'locality': 'São José dos Campos', 'type': 'postal_code', 'lng': -45.8934994, 'postal_code': '12239770', 'lat': -23.2685346, 'country': 'Brazil'},
{'address': 'Rua Lúcio Alves de Almeida', 'neighborhood': 'Conjunto Residencial Dom Pedro I', 'state': 'SP', 'abbreviation_country': 'BR', 'abbreviation_state': 'SP', 'locality': 'São José dos Campos', 'type': 'postal_code', 'lng': -45.8878215, 'postal_code': '12232831', 'lat': -23.2816004, 'country': 'Brazil'},
{'address': 'Rua M', 'neighborhood': 'Jardim Santa Hermínia', 'state': 'SP', 'abbreviation_country': 'BR', 'abbreviation_state': 'SP', 'locality': 'São José dos Campos', 'type': 'postal_code', 'lng': -45.7751625, 'postal_code': '12226834', 'lat': -23.2123597, 'country': 'Brazil'},
{'address': 'Rua Macapá', 'neighborhood': 'Parque Industrial', 'state': 'SP', 'abbreviation_country': 'BR', 'abbreviation_state': 'SP', 'locality': 'São José dos Campos', 'type': 'postal_code', 'lng': -45.9046731, 'postal_code': '12235570', 'lat': -23.2321895, 'country': 'Brazil'},
{'address': 'Rua Macau', 'neighborhood': 'Parque Industrial', 'state': 'SP', 'abbreviation_country': 'BR', 'abbreviation_state': 'SP', 'locality': 'São José dos Campos', 'type': 'postal_code', 'lng': -45.9066319, 'postal_code': '12235561', 'lat': -23.233371, 'country': 'Brazil'},
{'address': 'Rua Maceió', 'postal_code': '12209675', 'state': 'SP', 'abbreviation_country': 'BR', 'locality': 'São José dos Campos', 'type': 'postal_code', 'lng': -45.8837965, 'abbreviation_state': 'SP', 'lat': -23.1734098, 'country': 'Brazil'},
{'address': 'Rua Machado Sidney', 'neighborhood': 'Centro', 'state': 'SP', 'abbreviation_country': 'BR', 'abbreviation_state': 'SP', 'locality': 'São José dos Campos', 'type': 'postal_code', 'lng': -45.88785619999999, 'postal_code': '12245650', 'lat': -23.1918594, 'country': 'Brazil'},
{'address': 'Rua Machado de Assis', 'neighborhood': 'Monte Castelo', 'state': 'SP', 'abbreviation_country': 'BR', 'abbreviation_state': 'SP', 'locality': 'São José dos Campos', 'type': 'postal_code', 'lng': -45.8713161, 'postal_code': '12215080', 'lat': -23.1835406, 'country': 'Brazil'},
{'address': 'Rua Madagascar', 'neighborhood': 'Jardim América', 'state': 'SP', 'abbreviation_country': 'BR', 'abbreviation_state': 'SP', 'locality': 'São José dos Campos', 'type': 'postal_code', 'lng': -45.9038943, 'postal_code': '12235450', 'lat': -23.2370065, 'country': 'Brazil'},
{'address': 'Rua Madre Maria Gema de Jesus', 'neighborhood': 'Jardim da Granja', 'state': 'SP', 'abbreviation_country': 'BR', 'abbreviation_state': 'SP', 'locality': 'São José dos Campos', 'type': 'postal_code', 'lng': -45.858369, 'postal_code': '12227180', 'lat': -23.202035, 'country': 'Brazil'},
{'address': 'Rua Madre Paula de São José', 'neighborhood': 'Vila Ema', 'state': 'SP', 'abbreviation_country': 'BR', 'abbreviation_state': 'SP', 'locality': 'São José dos Campos', 'type': 'postal_code', 'lng': -45.9002887, 'postal_code': '12243010', 'lat': -23.2028493, 'country': 'Brazil'},
{'address': 'Avenida Madre Teresa', 'neighborhood': 'Centro', 'state': 'SP', 'abbreviation_country': 'BR', 'abbreviation_state': 'SP', 'locality': 'São José dos Campos', 'type': 'postal_code', 'lng': -45.8884124, 'postal_code': '12245680', 'lat': -23.1865892, 'country': 'Brazil'},
{'address': 'Avenida Madre Tereza de Calcutá', 'neighborhood': 'Residencial São Francisco', 'state': 'SP', 'abbreviation_country': 'BR', 'abbreviation_state': 'SP', 'locality': 'São José dos Campos', 'type': 'postal_code', 'lng': -45.8408963, 'postal_code': '12227850', 'lat': -23.2151845, 'country': 'Brazil'},
{'address': 'Rua Madri', 'neighborhood': 'Jardim Europa', 'state': 'MG', 'abbreviation_country': 'BR', 'abbreviation_state': 'MG', 'locality': 'Poços de Caldas', 'type': 'postal_code', 'lng': -46.5833362, 'postal_code': '12216750', 'lat': -21.7954452, 'country': 'Brazil'},
{'address': 'Rua Maestro Darci Rogério Claudino', 'neighborhood': 'Jardim Nova Republica', 'state': 'SP', 'abbreviation_country': 'BR', 'abbreviation_state': 'SP', 'locality': 'São José dos Campos', 'type': 'postal_code', 'lng': -45.8997853, 'postal_code': '12234878', 'lat': -23.2897694, 'country': 'Brazil'},
{'address': 'Rua Maestro Egídio Pinto', 'neighborhood': 'Jardim São Dimas', 'state': 'SP', 'abbreviation_country': 'BR', 'abbreviation_state': 'SP', 'locality': 'São José dos Campos', 'type': 'postal_code', 'lng': -45.88870199999999, 'postal_code': '12245190', 'lat': -23.1955236, 'country': 'Brazil'},
{'address': 'Rua Maestro Francisco Gaia', 'neighborhood': 'Monte Castelo', 'state': 'SP', 'abbreviation_country': 'BR', 'abbreviation_state': 'SP', 'locality': 'São José dos Campos', 'type': 'postal_code', 'lng': -45.873484, 'postal_code': '12215310', 'lat': -23.1821696, 'country': 'Brazil'},
{'address': 'Rua Magnólia', 'neighborhood': 'Monte Castelo', 'state': 'SP', 'abbreviation_country': 'BR', 'abbreviation_state': 'SP', 'locality': 'São José dos Campos', 'type': 'postal_code', 'lng': -45.867881, 'postal_code': '12215400', 'lat': -23.1875139, 'country': 'Brazil'},
{'address': 'Rua Major Antônio Domingues', 'neighborhood': 'Centro', 'state': 'SP', 'abbreviation_country': 'BR', 'abbreviation_state': 'SP', 'locality': 'São José dos Campos', 'type': 'postal_code', 'lng': -45.8891689, 'postal_code': '12245750', 'lat': -23.1904058, 'country': 'Brazil'},
{'address': 'Rua Major Arnaldo Visoto', 'neighborhood': 'Bosque dos Eucaliptos', 'state': 'SP', 'abbreviation_country': 'BR', 'abbreviation_state': 'SP', 'locality': 'São José dos Campos', 'type': 'postal_code', 'lng': -45.884654, 'postal_code': '12233140', 'lat': -23.2452698, 'country': 'Brazil'},
{'address': 'Rua Major Manoel Vilela Lopes', 'neighborhood': 'Urbanova', 'state': 'SP', 'abbreviation_country': 'BR', 'abbreviation_state': 'SP', 'locality': 'São José dos Campos', 'type': 'postal_code', 'lng': -45.9472278, 'postal_code': '12244510', 'lat': -23.2032172, 'country': 'Brazil'},
{'locality': 'São Paulo', 'postal_code': '12242111', 'state': 'SP', 'abbreviation_country': 'BR', 'type': 'postal_code', 'lng': -46.63330939999999, 'abbreviation_state': 'SP', 'lat': -23.5505199, 'country': 'Brazil'},
{'address': 'Rua Major Francisco de Paula Elias', 'neighborhood': 'Jardim São Dimas', 'state': 'SP', 'abbreviation_country': 'BR', 'abbreviation_state': 'SP', 'locality': 'São José dos Campos', 'type': 'postal_code', 'lng': -45.8907322, 'postal_code': '12245320', 'lat': -23.1973676, 'country': 'Brazil'},
{'address': 'Major José Mariotto Férreirá', 'neighborhood': 'Vila Betania', 'state': 'SP', 'abbreviation_country': 'BR', 'abbreviation_state': 'SP', 'locality': 'São José dos Campos', 'type': 'postal_code', 'lng': -45.892135, 'postal_code': '12245491', 'lat': -23.2078076, 'country': 'Brazil'},
{'address': 'Rua Major Manoel Fernandes Netto', 'neighborhood': 'Vila São Geraldo', 'state': 'SP', 'abbreviation_country': 'BR', 'abbreviation_state': 'SP', 'locality': 'São José dos Campos', 'type': 'postal_code', 'lng': -45.9122106, 'postal_code': '12213270', 'lat': -23.1486902, 'country': 'Brazil'},
{'address': 'Rua Major Manoel Vilela Lopes', 'neighborhood': 'Urbanova', 'state': 'SP', 'abbreviation_country': 'BR', 'abbreviation_state': 'SP', 'locality': 'São José dos Campos', 'type': 'postal_code', 'lng': -45.9472278, 'postal_code': '12244457', 'lat': -23.2032172, 'country': 'Brazil'},
{'address': 'Avenida Major Miguel Naked', 'neighborhood': 'Jardim das Colinas', 'state': 'SP', 'abbreviation_country': 'BR', 'abbreviation_state': 'SP', 'locality': 'São José dos Campos', 'type': 'postal_code', 'lng': -45.91049870000001, 'postal_code': '12242051', 'lat': -23.2035021, 'country': 'Brazil'},
{'address': 'Rua Major Vaz', 'neighborhood': 'Vila Adyana', 'state': 'SP', 'abbreviation_country': 'BR', 'abbreviation_state': 'SP', 'locality': 'São José dos Campos', 'type': 'postal_code', 'lng': -45.8951991, 'postal_code': '12243670', 'lat': -23.2033749, 'country': 'Brazil'},
{'address': 'Rua Malvina Barbosa de Araújo', 'neighborhood': 'Campo dos Alemães', 'state': 'SP', 'abbreviation_country': 'BR', 'abbreviation_state': 'SP', 'locality': 'São José dos Campos', 'type': 'postal_code', 'lng': -45.8951648, 'postal_code': '12239401', 'lat': -23.2732541, 'country': 'Brazil'},
{'address': 'Rua Malvinas', 'neighborhood': 'Cidade Vista Verde', 'state': 'SP', 'abbreviation_country': 'BR', 'abbreviation_state': 'SP', 'locality': 'São José dos Campos', 'type': 'postal_code', 'lng': -45.8309945, 'postal_code': '12223350', 'lat': -23.1804012, 'country': 'Brazil'},
{'address': 'Rua Mamede Alves Cardoso', 'neighborhood': 'Jardim das Indústrias', 'state': 'SP', 'abbreviation_country': 'BR', 'abbreviation_state': 'SP', 'locality': 'São José dos Campos', 'type': 'postal_code', 'lng': -45.9249152, 'postal_code': '12241170', 'lat': -23.2307526, 'country': 'Brazil'},
{'address': 'Rua Mamede Firmino de Morais', 'neighborhood': 'ヴィーラ・ド・テゾウロ', 'state': 'SP', 'abbreviation_country': 'BR', 'abbreviation_state': 'SP', 'locality': 'São José dos Campos', 'type': 'postal_code', 'lng': -45.8485303, 'postal_code': '12221290', 'lat': -23.1723516, 'country': 'Brazil'},
{'address': 'Rua Mamud Carneiro', 'neighborhood': 'Campo dos Alemães', 'state': 'SP', 'abbreviation_country': 'BR', 'abbreviation_state': 'SP', 'locality': 'São José dos Campos', 'type': 'postal_code', 'lng': -45.9015166, 'postal_code': '12239066', 'lat': -23.2737438, 'country': 'Brazil'},
{'address': 'Rua Manabu Mabe', 'neighborhood': 'Jardim Santo Onofre', 'state': 'SP', 'abbreviation_country': 'BR', 'abbreviation_state': 'SP', 'locality': 'São José dos Campos', 'type': 'postal_code', 'lng': -45.8302215, 'postal_code': '12228011', 'lat': -23.2516175, 'country': 'Brazil'},
{'address': 'Rua Manacá', 'neighborhood': 'Jardim Ismênia', 'state': 'SP', 'abbreviation_country': 'BR', 'abbreviation_state': 'SP', 'locality': 'São José dos Campos', 'type': 'postal_code', 'lng': -45.8441143, 'postal_code': '12221090', 'lat': -23.1772624, 'country': 'Brazil'},
{'address': 'Rua Manaus', 'neighborhood': 'Vila Terezinha', 'state': 'SP', 'abbreviation_country': 'BR', 'abbreviation_state': 'SP', 'locality': 'São José dos Campos', 'type': 'postal_code', 'lng': -45.88076179999999, 'postal_code': '12209705', 'lat': -23.1726972, 'country': 'Brazil'},
{'address': 'Avenida dos Eucaliptos', 'neighborhood': 'Indianópolis', 'state': 'SP', 'abbreviation_country': 'BR', 'abbreviation_state': 'SP', 'locality': 'São Paulo', 'type': 'postal_code', 'lng': -46.6697004, 'postal_code': '12232096', 'lat': -23.6095293, 'country': 'Brazil'},
{'address': 'Rua Manicoré', 'neighborhood': 'Parque Industrial', 'state': 'SP', 'abbreviation_country': 'BR', 'abbreviation_state': 'SP', 'locality': 'São José dos Campos', 'type': 'postal_code', 'lng': -45.9052662, 'postal_code': '12235730', 'lat': -23.2375366, 'country': 'Brazil'},
{'address': 'Rua Manjericão', 'neighborhood': 'Chácaras Pousada do Vale', 'state': 'SP', 'abbreviation_country': 'BR', 'abbreviation_state': 'SP', 'locality': 'São José dos Campos', 'type': 'postal_code', 'lng': -45.7947555, 'postal_code': '12226741', 'lat': -23.2122375, 'country': 'Brazil'},
{'address': 'Rua Manjerona', 'neighborhood': 'Chácaras Pousada do Vale', 'state': 'SP', 'abbreviation_country': 'BR', 'abbreviation_state': 'SP', 'locality': 'São José dos Campos', 'type': 'postal_code', 'lng': -45.7907073, 'postal_code': '12226735', 'lat': -23.2145073, 'country': 'Brazil'},
{'locality': 'São Paulo', 'postal_code': '12240170', 'state': 'SP', 'abbreviation_country': 'BR', 'type': 'postal_code', 'lng': -46.63330939999999, 'abbreviation_state': 'SP', 'lat': -23.5505199, 'country': 'Brazil'},
{'address': 'Rua Manoel Alves Feitosa', 'neighborhood': 'Loteamento Residencial Vista Linda', 'state': 'SP', 'abbreviation_country': 'BR', 'abbreviation_state': 'SP', 'locality': 'São José dos Campos', 'type': 'postal_code', 'lng': -45.859181, 'postal_code': '12220049', 'lat': -23.1735295, 'country': 'Brazil'},
{'address': 'Rua Manoel Antônio do Santos', 'neighborhood': 'Residencial Armando Moreira Righi', 'state': 'SP', 'abbreviation_country': 'BR', 'abbreviation_state': 'SP', 'locality': 'São José dos Campos', 'type': 'postal_code', 'lng': -45.7658178, 'postal_code': '12247820', 'lat': -23.1372453, 'country': 'Brazil'},
{'address': 'Rua Manoel Augusto Amaral', 'neighborhood': 'Jardim Colonial', 'state': 'SP', 'abbreviation_country': 'BR', 'abbreviation_state': 'SP', 'locality': 'São José dos Campos', 'type': 'postal_code', 'lng': -45.8977775, 'postal_code': '12234220', 'lat': -23.2855752, 'country': 'Brazil'},
{'address': 'Rua Manoel Bandeira', 'neighborhood': 'Jardim das Indústrias', 'state': 'SP', 'abbreviation_country': 'BR', 'abbreviation_state': 'SP', 'locality': 'São José dos Campos', 'type': 'postal_code', 'lng': -45.91769619999999, 'postal_code': '12240710', 'lat': -23.2202233, 'country': 'Brazil'},
{'address': 'Avenida Manoel Borba Gato', 'neighborhood': 'Jardim Nova América', 'state': 'SP', 'abbreviation_country': 'BR', 'abbreviation_state': 'SP', 'locality': 'São José dos Campos', 'type': 'postal_code', 'lng': -45.8981558, 'postal_code': '12242270', 'lat': -23.1924369, 'country': 'Brazil'},
{'address': 'Rua Manoel Bosco Ribeiro', 'neighborhood': 'Jardim das Indústrias', 'state': 'SP', 'abbreviation_country': 'BR', 'abbreviation_state': 'SP', 'locality': 'São José dos Campos', 'type': 'postal_code', 'lng': -45.9252145, 'postal_code': '12241070', 'lat': -23.2276499, 'country': 'Brazil'},
{'address': 'Rua Manoel Corrêa de Oliveira', 'neighborhood': 'Campo dos Alemães', 'state': 'SP', 'abbreviation_country': 'BR', 'abbreviation_state': 'SP', 'locality': 'São José dos Campos', 'type': 'postal_code', 'lng': -45.8979752, 'postal_code': '12239350', 'lat': -23.2721887, 'country': 'Brazil'},
{'address': 'Rua Geraldo Machado da Silva', 'postal_code': '12213267', 'state': 'SP', 'abbreviation_country': 'BR', 'locality': 'São José dos Campos', 'type': 'postal_code', 'lng': -45.91717999999999, 'abbreviation_state': 'SP', 'lat': -23.1557487, 'country': 'Brazil'},
{'address': 'Rua Manoel Fiel Filho', 'neighborhood': 'Bosque dos Eucaliptos', 'state': 'SP', 'abbreviation_country': 'BR', 'abbreviation_state': 'SP', 'locality': 'São José dos Campos', 'type': 'postal_code', 'lng': -45.8872027, 'postal_code': '12233690', 'lat': -23.2529701, 'country': 'Brazil'},
{'address': 'Rua Manoel Francisco de Moraes', 'neighborhood': 'Jardim Mariana I', 'state': 'SP', 'abbreviation_country': 'BR', 'abbreviation_state': 'SP', 'locality': 'São José dos Campos', 'type': 'postal_code', 'lng': -45.8010185, 'postal_code': '12226851', 'lat': -23.2150931, 'country': 'Brazil'},
{'address': 'Rua Manoel Freire de Castro', 'neighborhood': 'Bosque dos Eucaliptos', 'state': 'SP', 'abbreviation_country': 'BR', 'abbreviation_state': 'SP', 'locality': 'São José dos Campos', 'type': 'postal_code', 'lng': -45.8831991, 'postal_code': '12233110', 'lat': -23.2417955, 'country': 'Brazil'},
{'address': 'Rua Manoel Joaquim de Oliveira', 'neighborhood': 'Monte Castelo', 'state': 'SP', 'abbreviation_country': 'BR', 'abbreviation_state': 'SP', 'locality': 'São José dos Campos', 'type': 'postal_code', 'lng': -45.8740116, 'postal_code': '12215090', 'lat': -23.1857277, 'country': 'Brazil'},
{'address': 'Rua Manoel José Filho', 'neighborhood': 'Cidade Morumbi', 'state': 'SP', 'abbreviation_country': 'BR', 'abbreviation_state': 'SP', 'locality': 'São José dos Campos', 'type': 'postal_code', 'lng': -45.9000355, 'postal_code': '12236550', 'lat': -23.2499117, 'country': 'Brazil'},
{'address': 'Rua Manoel Lemes Palmeira', 'neighborhood': 'Santana', 'state': 'SP', 'abbreviation_country': 'BR', 'abbreviation_state': 'SP', 'locality': 'São José dos Campos', 'type': 'postal_code', 'lng': -45.8936301, 'postal_code': '12211241', 'lat': -23.1669089, 'country': 'Brazil'},
{'address': 'Rua Manoel Mariano', 'neighborhood': 'Jardim Colonial', 'state': 'SP', 'abbreviation_country': 'BR', 'abbreviation_state': 'SP', 'locality': 'São José dos Campos', 'type': 'postal_code', 'lng': -45.8967153, 'postal_code': '12234240', 'lat': -23.2857665, 'country': 'Brazil'},
{'address': 'Rua Doutor Manoel Martins Neto', 'neighborhood': 'Conjunto Residencial Elmano Veloso', 'state': 'SP', 'abbreviation_country': 'BR', 'abbreviation_state': 'SP', 'locality': 'São José dos Campos', 'type': 'postal_code', 'lng': -45.8973884, 'postal_code': '12234550', 'lat': -23.2777566, 'country': 'Brazil'},
{'address': 'Rua Manoel Meneses Leal', 'postal_code': '12247500', 'state': 'SP', 'abbreviation_country': 'BR', 'locality': 'São José dos Campos', 'type': 'postal_code', 'lng': -45.77328790000001, 'abbreviation_state': 'SP', 'lat': -23.137466, 'country': 'Brazil'},
{'address': 'Rua Manoel Miguel Filho', 'neighborhood': 'Conjunto Residencial Trinta e Um de Marco', 'state': 'SP', 'abbreviation_country': 'BR', 'abbreviation_state': 'SP', 'locality': 'São José dos Campos', 'type': 'postal_code', 'lng': -45.9174645, 'postal_code': '12237770', 'lat': -23.2438876, 'country': 'Brazil'},
{'address': 'Rua Manoel Pio', 'neighborhood': 'Jardim das Indústrias', 'state': 'SP', 'abbreviation_country': 'BR', 'abbreviation_state': 'SP', 'locality': 'São José dos Campos', 'type': 'postal_code', 'lng': -45.9189425, 'postal_code': '12240730', 'lat': -23.2193991, 'country': 'Brazil'},
{'address': 'Rua Manoel Prianti', 'neighborhood': 'Santana', 'state': 'SP', 'abbreviation_country': 'BR', 'abbreviation_state': 'SP', 'locality': 'São José dos Campos', 'type': 'postal_code', 'lng': -45.8956623, 'postal_code': '12211720', 'lat': -23.1585999, 'country': 'Brazil'},
{'address': 'Rua Manoel Ramos Machado', 'neighborhood': 'Santana', 'state': 'SP', 'abbreviation_country': 'BR', 'abbreviation_state': 'SP', 'locality': 'São José dos Campos', 'type': 'postal_code', 'lng': -45.8993054, 'postal_code': '12211810', 'lat': -23.1564663, 'country': 'Brazil'},
{'locality': 'São Paulo', 'neighborhood': 'Parque Novo Mundo', 'state': 'SP', 'abbreviation_country': 'BR', 'abbreviation_state': 'SP', 'type': 'postal_code', 'lng': -46.57350719999999, 'postal_code': '12212230', 'lat': -23.5105569, 'country': 'Brazil'},
{'address': 'Rua Manoel Ricardo Júnior', 'neighborhood': 'Jardim São Dimas', 'state': 'SP', 'abbreviation_country': 'BR', 'abbreviation_state': 'SP', 'locality': 'São José dos Campos', 'type': 'postal_code', 'lng': -45.8869078, 'postal_code': '12245061', 'lat': -23.1942046, 'country': 'Brazil'},
{'address': 'Rua Manoel Rodrigues de Moraes', 'neighborhood': 'Santana', 'state': 'SP', 'abbreviation_country': 'BR', 'abbreviation_state': 'SP', 'locality': 'São José dos Campos', 'type': 'postal_code', 'lng': -45.8963778, 'postal_code': '12211640', 'lat': -23.1557276, 'country': 'Brazil'},
{'address': 'Rua Manoel Rosendo de Oliveira', 'neighborhood': 'Alto da Ponte', 'state': 'SP', 'abbreviation_country': 'BR', 'abbreviation_state': 'SP', 'locality': 'São José dos Campos', 'type': 'postal_code', 'lng': -45.9021225, 'postal_code': '12212400', 'lat': -23.1509252, 'country': 'Brazil'},
{'address': 'Rua Manoel Saldanha', 'neighborhood': 'Conjunto Residencial Vale dos Pinheiros', 'state': 'SP', 'abbreviation_country': 'BR', 'abbreviation_state': 'SP', 'locality': 'São José dos Campos', 'type': 'postal_code', 'lng': -45.9109298, 'postal_code': '12242330', 'lat': -23.1966046, 'country': 'Brazil'},
{'address': 'Rua Manoel Senra Delgado', 'neighborhood': 'Cidade Vista Verde', 'state': 'SP', 'abbreviation_country': 'BR', 'abbreviation_state': 'SP', 'locality': 'São José dos Campos', 'type': 'postal_code', 'lng': -45.8173304, 'postal_code': '12223550', 'lat': -23.1762794, 'country': 'Brazil'},
{'address': 'Rua Manoel Terto de Amorim', 'neighborhood': 'Residencial Bosque dos Ipês', 'state': 'SP', 'abbreviation_country': 'BR', 'abbreviation_state': 'SP', 'locality': 'São José dos Campos', 'type': 'postal_code', 'lng': -45.8992503, 'postal_code': '12236877', 'lat': -23.2595609, 'country': 'Brazil'},
{'address': 'Travessa Manoel da Nóbrega', 'neighborhood': 'Jardim São Dimas', 'state': 'SP', 'abbreviation_country': 'BR', 'abbreviation_state': 'SP', 'locality': 'São José dos Campos', 'type': 'postal_code', 'lng': -45.8852128, 'postal_code': '12245112', 'lat': -23.1945775, 'country': 'Brazil'},
{'address': 'Praça Manoel de Abreu', 'neighborhood': 'ジャルジン・ルシ', 'state': 'SP', 'abbreviation_country': 'BR', 'abbreviation_state': 'SP', 'locality': 'Taubaté', 'type': 'postal_code', 'lng': -45.5546908, 'postal_code': '12245821', 'lat': -23.0321022, 'country': 'Brazil'},
{'address': 'Rua Manoel de Oliveira e Silva', 'neighborhood': 'Vila Cristina', 'state': 'SP', 'abbreviation_country': 'BR', 'abbreviation_state': 'SP', 'locality': 'São José dos Campos', 'type': 'postal_code', 'lng': -45.8895581, 'postal_code': '12211123', 'lat': -23.1577706, 'country': 'Brazil'},
{'address': 'Rua Manoel de Souza Peixoto', 'neighborhood': 'Jardim Torrao de Ouro', 'state': 'SP', 'abbreviation_country': 'BR', 'abbreviation_state': 'SP', 'locality': 'São José dos Campos', 'type': 'postal_code', 'lng': -45.8660339, 'postal_code': '12229270', 'lat': -23.2676886, 'country': 'Brazil'},
{'address': 'Rua Manoel dos Santos Cabral', 'neighborhood': 'Jardim Del Rey', 'state': 'SP', 'abbreviation_country': 'BR', 'abbreviation_state': 'SP', 'locality': 'São José dos Campos', 'type': 'postal_code', 'lng': -45.8827571, 'postal_code': '12232231', 'lat': -23.2612037, 'country': 'Brazil'},
{'address': 'Rua Manoel Ângelo de Andrade', 'neighborhood': 'Campos de José', 'state': 'SP', 'abbreviation_country': 'BR', 'abbreviation_state': 'SP', 'locality': 'São José dos Campos', 'type': 'postal_code', 'lng': -45.81105489999999, 'postal_code': '12226480', 'lat': -23.2161896, 'country': 'Brazil'},
{'address': 'Rua Mansueto Brandi', 'neighborhood': 'Jardim Castanheira', 'state': 'SP', 'abbreviation_country': 'BR', 'abbreviation_state': 'SP', 'locality': 'São José dos Campos', 'type': 'postal_code', 'lng': -45.7923275, 'postal_code': '12225330', 'lat': -23.1840292, 'country': 'Brazil'},
{'address': 'Rua João Gama', 'neighborhood': 'Vela Bourguese', 'state': 'SP', 'abbreviation_country': 'BR', 'abbreviation_state': 'SP', 'locality': 'Pindamonhangaba', 'type': 'postal_code', 'lng': -45.4567284, 'postal_code': '12213712', 'lat': -22.931635, 'country': 'Brazil'},
{'address': 'Rua Mantura Neme', 'neighborhood': 'Jardim Paraíso do Sol', 'state': 'SP', 'abbreviation_country': 'BR', 'abbreviation_state': 'SP', 'locality': 'São José dos Campos', 'type': 'postal_code', 'lng': -45.7982004, 'postal_code': '12225200', 'lat': -23.1833487, 'country': 'Brazil'},
{'address': 'Rua Manuel Barbosa de Souza', 'neighborhood': 'Cidade Morumbi', 'state': 'SP', 'abbreviation_country': 'BR', 'abbreviation_state': 'SP', 'locality': 'São José dos Campos', 'type': 'postal_code', 'lng': -45.9051806, 'postal_code': '12236790', 'lat': -23.247537, 'country': 'Brazil'},
{'address': 'Avenida Manuel Vieira', 'neighborhood': 'Residencial União', 'state': 'SP', 'abbreviation_country': 'BR', 'abbreviation_state': 'SP', 'locality': 'São José dos Campos', 'type': 'postal_code', 'lng': -45.9115057, 'postal_code': '12239053', 'lat': -23.2624089, 'country': 'Brazil'},
{'address': 'Rua Mar Del Plata', 'neighborhood': 'Jardim América', 'state': 'SP', 'abbreviation_country': 'BR', 'abbreviation_state': 'SP', 'locality': 'São José dos Campos', 'type': 'postal_code', 'lng': -45.8990209, 'postal_code': '12235340', 'lat': -23.2346103, 'country': 'Brazil'},
{'address': 'Rua Marabá', 'neighborhood': 'Parque Industrial', 'state': 'SP', 'abbreviation_country': 'BR', 'abbreviation_state': 'SP', 'locality': 'São José dos Campos', 'type': 'postal_code', 'lng': -45.91067, 'postal_code': '12235780', 'lat': -23.2473178, 'country': 'Brazil'},
{'address': 'Rua Maracaibo', 'neighborhood': 'Jardim América', 'state': 'SP', 'abbreviation_country': 'BR', 'abbreviation_state': 'SP', 'locality': 'São José dos Campos', 'type': 'postal_code', 'lng': -45.9009716, 'postal_code': '12235370', 'lat': -23.23347, 'country': 'Brazil'},
{'address': 'Travessa Maracás', 'neighborhood': 'Jardim Vale do Sol', 'state': 'SP', 'abbreviation_country': 'BR', 'abbreviation_state': 'SP', 'locality': 'São José dos Campos', 'type': 'postal_code', 'lng': -45.9118234, 'postal_code': '12238250', 'lat': -23.2528105, 'country': 'Brazil'},
{'address': 'Rua Maranduba', 'neighborhood': 'Jardim Satélite', 'state': 'SP', 'abbreviation_country': 'BR', 'abbreviation_state': 'SP', 'locality': 'São José dos Campos', 'type': 'postal_code', 'lng': -45.88252, 'postal_code': '12230680', 'lat': -23.2329281, 'country': 'Brazil'},
{'address': 'Rua Maranhão', 'neighborhood': 'Vila São Pedro', 'state': 'SP', 'abbreviation_country': 'BR', 'abbreviation_state': 'SP', 'locality': 'São José dos Campos', 'type': 'postal_code', 'lng': -45.8643999, 'postal_code': '12215680', 'lat': -23.1906952, 'country': 'Brazil'},
{'address': 'Rua Marcabe', 'neighborhood': 'Jardim Satélite', 'state': 'SP', 'abbreviation_country': 'BR', 'abbreviation_state': 'SP', 'locality': 'São José dos Campos', 'type': 'postal_code', 'lng': -45.89191839999999, 'postal_code': '12230580', 'lat': -23.2244606, 'country': 'Brazil'},
{'address': 'Rua Marcelo Carlos Pereira', 'neighborhood': 'Cidade Morumbi', 'state': 'SP', 'abbreviation_country': 'BR', 'abbreviation_state': 'SP', 'locality': 'São José dos Campos', 'type': 'postal_code', 'lng': -45.9019527, 'postal_code': '12236530', 'lat': -23.2463985, 'country': 'Brazil'},
{'address': 'Rua Marcelo Cordeiro de Oliveira', 'neighborhood': 'Residencial de Ville', 'state': 'SP', 'abbreviation_country': 'BR', 'abbreviation_state': 'SP', 'locality': 'São José dos Campos', 'type': 'postal_code', 'lng': -45.91594509999999, 'postal_code': '12237875', 'lat': -23.2514934, 'country': 'Brazil'},
{'address': 'Rua Marcelo Alves', 'neighborhood': 'Campo dos Alemães', 'state': 'SP', 'abbreviation_country': 'BR', 'abbreviation_state': 'SP', 'locality': 'São José dos Campos', 'type': 'postal_code', 'lng': -45.8992848, 'postal_code': '12239380', 'lat': -23.272194, 'country': 'Brazil'},
{'address': 'Rua Marcelo Manso', 'neighborhood': 'Residencial União', 'state': 'SP', 'abbreviation_country': 'BR', 'abbreviation_state': 'SP', 'locality': 'São José dos Campos', 'type': 'postal_code', 'lng': -45.90800309999999, 'postal_code': '12239012', 'lat': -23.2658638, 'country': 'Brazil'},
{'address': 'Rua Marcelo Oliveira Renó', 'neighborhood': 'Residencial União', 'state': 'SP', 'abbreviation_country': 'BR', 'abbreviation_state': 'SP', 'locality': 'São José dos Campos', 'type': 'postal_code', 'lng': -45.90987459999999, 'postal_code': '12239004', 'lat': -23.2631712, 'country': 'Brazil'},
{'locality': 'São Paulo', 'postal_code': '12226091', 'state': 'SP', 'abbreviation_country': 'BR', 'type': 'postal_code', 'lng': -46.63330939999999, 'abbreviation_state': 'SP', 'lat': -23.5505199, 'country': 'Brazil'},
{'address': 'Rua Marcílio Dias', 'neighborhood': 'Vila Seabra', 'state': 'SP', 'abbreviation_country': 'BR', 'abbreviation_state': 'SP', 'locality': 'Bauru', 'type': 'postal_code', 'lng': -49.0777858, 'postal_code': '12242731', 'lat': -22.3115722, 'country': 'Brazil'},
{'address': 'Rua das Flores', 'neighborhood': 'Vila Nova União', 'state': 'SP', 'abbreviation_country': 'BR', 'abbreviation_state': 'SP', 'locality': 'São Paulo', 'type': 'postal_code', 'lng': -46.4585353, 'postal_code': '12234764', 'lat': -23.4860346, 'country': 'Brazil'},
{'address': 'Travessa Marcinei Francisco Barbosa', 'neighborhood': 'Residencial União', 'state': 'SP', 'abbreviation_country': 'BR', 'abbreviation_state': 'SP', 'locality': 'São José dos Campos', 'type': 'postal_code', 'lng': -45.9041427, 'postal_code': '12239010', 'lat': -23.2635796, 'country': 'Brazil'},
{'address': 'Rua Marco Antônio dos Santos', 'neighborhood': 'Jardim Satélite', 'state': 'SP', 'abbreviation_country': 'BR', 'abbreviation_state': 'SP', 'locality': 'São José dos Campos', 'type': 'postal_code', 'lng': -45.8797805, 'postal_code': '12231800', 'lat': -23.2348479, 'country': 'Brazil'},
{'address': 'Rua Marco Pólo', 'neighborhood': 'Jardim Oriente', 'state': 'SP', 'abbreviation_country': 'BR', 'abbreviation_state': 'SP', 'locality': 'São José dos Campos', 'type': 'postal_code', 'lng': -45.90111580000001, 'postal_code': '12236220', 'lat': -23.2420671, 'country': 'Brazil'},
{'address': 'Rua Marco Túlio Cícero', 'neighborhood': 'Jardim Oriente', 'state': 'SP', 'abbreviation_country': 'BR', 'abbreviation_state': 'SP', 'locality': 'São José dos Campos', 'type': 'postal_code', 'lng': -45.8993311, 'postal_code': '12236110', 'lat': -23.2392679, 'country': 'Brazil'},
{'address': 'Rua Marcondes Salgado', 'neighborhood': 'Vila Adyana', 'state': 'SP', 'abbreviation_country': 'BR', 'abbreviation_state': 'SP', 'locality': 'São José dos Campos', 'type': 'postal_code', 'lng': -45.89485790000001, 'postal_code': '12243820', 'lat': -23.1952998, 'country': 'Brazil'},
{'address': 'Rua Marcos Rogério Deolindo da Silva', 'neighborhood': 'Urbanova', 'state': 'SP', 'abbreviation_country': 'BR', 'abbreviation_state': 'SP', 'locality': 'São José dos Campos', 'type': 'postal_code', 'lng': -45.9480657, 'postal_code': '12244540', 'lat': -23.2024116, 'country': 'Brazil'},
{'address': 'Rua Marcos Salgado de Araújo', 'neighborhood': 'Urbanova', 'state': 'SP', 'abbreviation_country': 'BR', 'abbreviation_state': 'SP', 'locality': 'São José dos Campos', 'type': 'postal_code', 'lng': -45.9356148, 'postal_code': '12244360', 'lat': -23.1977352, 'country': 'Brazil'},
{'address': 'Rua Marcos Salgado de Araújo', 'neighborhood': 'Urbanova', 'state': 'SP', 'abbreviation_country': 'BR', 'abbreviation_state': 'SP', 'locality': 'São José dos Campos', 'type': 'postal_code', 'lng': -45.9356148, 'postal_code': '12244602', 'lat': -23.1977352, 'country': 'Brazil'},
{'address': 'Rua Marcos Azevedo', 'neighborhood': 'Vila Santa Rita', 'state': 'SP', 'abbreviation_country': 'BR', 'abbreviation_state': 'SP', 'locality': 'São José dos Campos', 'type': 'postal_code', 'lng': -45.9035131, 'postal_code': '12242283', 'lat': -23.193128, 'country': 'Brazil'},
{'address': 'Rua Marcílio Benedito Costa', 'neighborhood': 'Jardim Pararangaba', 'state': 'SP', 'abbreviation_country': 'BR', 'abbreviation_state': 'SP', 'locality': 'São José dos Campos', 'type': 'postal_code', 'lng': -45.8055715, 'postal_code': '12224793', 'lat': -23.1725927, 'country': 'Brazil'},
{'address': 'Avenida Marechal Castelo Branco', 'neighborhood': 'Jardim Bela Vista', 'state': 'SP', 'abbreviation_country': 'BR', 'abbreviation_state': 'SP', 'locality': 'São José dos Campos', 'type': 'postal_code', 'lng': -45.8864455, 'postal_code': '12209002', 'lat': -23.1766747, 'country': 'Brazil'},
{'address': 'Rua Marechal Deodoro', 'postal_code': '12247220', 'state': 'SP', 'abbreviation_country': 'BR', 'locality': 'São José dos Campos', 'type': 'postal_code', 'lng': -45.7864522, 'abbreviation_state': 'SP', 'lat': -23.1393396, 'country': 'Brazil'},
{'address': 'Avenida Marechal Floriano Peixoto', 'neighborhood': 'Centro', 'state': 'SP', 'abbreviation_country': 'BR', 'abbreviation_state': 'SP', 'locality': 'São José dos Campos', 'type': 'postal_code', 'lng': -45.8846005, 'postal_code': '12210030', 'lat': -23.187344, 'country': 'Brazil'},
{'address': 'Avenida Marechal Henrique Teixeira Lott', 'neighborhood': 'Vila Nair', 'state': 'SP', 'abbreviation_country': 'BR', 'abbreviation_state': 'SP', 'locality': 'São José dos Campos', 'type': 'postal_code', 'lng': -45.886586, 'postal_code': '12231100', 'lat': -23.2078789, 'country': 'Brazil'},
{'address': 'Rua Marechal Rondon', 'neighborhood': 'Monte Castelo', 'state': 'SP', 'abbreviation_country': 'BR', 'abbreviation_state': 'SP', 'locality': 'São José dos Campos', 'type': 'postal_code', 'lng': -45.8719089, 'postal_code': '12215070', 'lat': -23.183432, 'country': 'Brazil'},
{'address': 'Rua Marechal-do-Ar Benjamin Manoel Amarante', 'neighborhood': 'Jardim das Colinas', 'state': 'SP', 'abbreviation_country': 'BR', 'abbreviation_state': 'SP', 'locality': 'São José dos Campos', 'type': 'postal_code', 'lng': -45.9083178, 'postal_code': '12242071', 'lat': -23.2072338, 'country': 'Brazil'},
{'locality': 'Campinas', 'neighborhood': 'Vila São Bento', 'state': 'SP', 'abbreviation_country': 'BR', 'type': 'postal_code', 'country': 'Brazil', 'lng': -47.0934298, 'abbreviation_state': 'SP', 'lat': -22.910747, 'postal_code': '12231590'},
{'locality': 'São José dos Campos', 'neighborhood': 'Campus do CTA', 'state': 'SP', 'abbreviation_country': 'BR', 'abbreviation_state': 'SP', 'type': 'postal_code', 'lng': -45.88224890000001, 'postal_code': '12228615', 'lat': -23.2054021, 'country': 'Brazil'},
{'address': 'Rua Margarida F dos Santos', 'neighborhood': 'Jardim Satélite', 'state': 'SP', 'abbreviation_country': 'BR', 'abbreviation_state': 'SP', 'locality': 'São José dos Campos', 'type': 'postal_code', 'lng': -45.8796512, 'postal_code': '12231760', 'lat': -23.2325425, 'country': 'Brazil'},
{'address': 'Rua Margarida Trindade Machado', 'neighborhood': 'Vila Unidos', 'state': 'SP', 'abbreviation_country': 'BR', 'abbreviation_state': 'SP', 'locality': 'São José dos Campos', 'type': 'postal_code', 'lng': -45.9148294, 'postal_code': '12214503', 'lat': -23.1573037, 'country': 'Brazil'},
{'address': 'Avenida Marginal', 'neighborhood': 'Campo Limpo', 'state': 'SP', 'abbreviation_country': 'BR', 'abbreviation_state': 'SP', 'locality': 'São Paulo', 'type': 'postal_code', 'lng': -46.767738, 'postal_code': '12235311', 'lat': -23.6244458, 'country': 'Brazil'},
{'address': 'Avenida Marginal', 'neighborhood': 'Jardim Patente', 'state': 'SP', 'abbreviation_country': 'BR', 'abbreviation_state': 'SP', 'locality': 'São Paulo', 'type': 'postal_code', 'lng': -46.5830311, 'postal_code': '12231131', 'lat': -23.6230365, 'country': 'Brazil'},
{'address': 'Avenida Marginal', 'neighborhood': 'Jardim Maria Rita', 'state': 'SP', 'abbreviation_country': 'BR', 'abbreviation_state': 'SP', 'locality': 'São Paulo', 'type': 'postal_code', 'lng': -46.6819692, 'postal_code': '12227040', 'lat': -23.7162554, 'country': 'Brazil'},
{'address': 'Avenida Maria Adolfina de Almeida Tomaz', 'neighborhood': 'Jardim Paraíso do Sol', 'state': 'SP', 'abbreviation_country': 'BR', 'abbreviation_state': 'SP', 'locality': 'São José dos Campos', 'type': 'postal_code', 'lng': -45.8005848, 'postal_code': '12225240', 'lat': -23.18274, 'country': 'Brazil'},
{'address': 'Rua Maria Ágda de Jesus', 'neighborhood': 'Parque Nova Esperança', 'state': 'SP', 'abbreviation_country': 'BR', 'abbreviation_state': 'SP', 'locality': 'São José dos Campos', 'type': 'postal_code', 'lng': -45.7807915, 'postal_code': '12226140', 'lat': -23.2059284, 'country': 'Brazil'},
{'address': 'Rua Maria Alice Pasquareli', 'neighborhood': 'Jardim Santa Inês I', 'state': 'SP', 'abbreviation_country': 'BR', 'abbreviation_state': 'SP', 'locality': 'São José dos Campos', 'type': 'postal_code', 'lng': -45.7953169, 'postal_code': '12248400', 'lat': -23.1743165, 'country': 'Brazil'},
{'address': 'Rua Maria Alves Bonfim', 'neighborhood': 'Campos de São José', 'state': 'SP', 'abbreviation_country': 'BR', 'abbreviation_state': 'SP', 'locality': 'São José dos Campos', 'type': 'postal_code', 'lng': -45.8114151, 'postal_code': '12226560', 'lat': -23.2119345, 'country': 'Brazil'},
{'address': 'Rua José Maria Novaes', 'neighborhood': 'Jardim do Mar', 'state': 'SP', 'abbreviation_country': 'BR', 'abbreviation_state': 'SP', 'locality': 'São Bernardo do Campo', 'type': 'postal_code', 'lng': -46.5616001, 'postal_code': '12228184', 'lat': -23.6941318, 'country': 'Brazil'},
{'address': 'Rua José Maria Novaes', 'neighborhood': 'Jardim do Mar', 'state': 'SP', 'abbreviation_country': 'BR', 'abbreviation_state': 'SP', 'locality': 'São Bernardo do Campo', 'type': 'postal_code', 'lng': -46.5616001, 'postal_code': '12228188', 'lat': -23.6941318, 'country': 'Brazil'},
{'address': 'Rua Maria Ambrosina Pedrosa Dias', 'neighborhood': 'Residencial União', 'state': 'SP', 'abbreviation_country': 'BR', 'abbreviation_state': 'SP', 'locality': 'São José dos Campos', 'type': 'postal_code', 'lng': -45.9035659, 'postal_code': '12239042', 'lat': -23.2675385, 'country': 'Brazil'},
{'address': 'Rua Maria Amélia de Oliveira', 'neighborhood': 'Jardim Santo Onofre', 'state': 'SP', 'abbreviation_country': 'BR', 'abbreviation_state': 'SP', 'locality': 'São José dos Campos', 'type': 'postal_code', 'lng': -45.8306141, 'postal_code': '12229440', 'lat': -23.2504402, 'country': 'Brazil'},
{'address': 'Rua Maria Amélia de Oliveira', 'neighborhood': 'Jardim Santo Onofre', 'state': 'SP', 'abbreviation_country': 'BR', 'abbreviation_state': 'SP', 'locality': 'São José dos Campos', 'type': 'postal_code', 'lng': -45.8306141, 'postal_code': '12228007', 'lat': -23.2504402, 'country': 'Brazil'},
{'address': 'Rua Maria Angélia Monteiro Rodrigues', 'postal_code': '12226878', 'state': 'SP', 'abbreviation_country': 'BR', 'locality': 'São José dos Campos', 'type': 'postal_code', 'lng': -45.8051719, 'abbreviation_state': 'SP', 'lat': -23.2183133, 'country': 'Brazil'},
{'address': 'Rua Rosária Maria de Souza', 'neighborhood': 'Residencial Jardins', 'state': 'SP', 'abbreviation_country': 'BR', 'abbreviation_state': 'SP', 'locality': 'Sao Jose do Rio Preto', 'type': 'postal_code', 'lng': -49.3399864, 'postal_code': '12231817', 'lat': -20.8178031, 'country': 'Brazil'},
{'address': 'Rua Maria Aparecida Azevedo', 'neighborhood': 'Jardim Colonial', 'state': 'SP', 'abbreviation_country': 'BR', 'abbreviation_state': 'SP', 'locality': 'São José dos Campos', 'type': 'postal_code', 'lng': -45.9020954, 'postal_code': '12234051', 'lat': -23.2822525, 'country': 'Brazil'},
{'address': 'Rua Maria Aparecida de O. Santos', 'neighborhood': 'レジデンシアウ・ウニアン', 'state': 'SP', 'abbreviation_country': 'BR', 'abbreviation_state': 'SP', 'locality': 'São José dos Campos', 'type': 'postal_code', 'lng': -45.90252690000001, 'postal_code': '12238501', 'lat': -23.2637623, 'country': 'Brazil'},
{'address': 'Rua Maria Aparecida', 'neighborhood': 'Vila Santa Terezinha', 'state': 'SP', 'abbreviation_country': 'BR', 'abbreviation_state': 'SP', 'locality': 'Várzea Paulista', 'type': 'postal_code', 'lng': -46.8473792, 'postal_code': '12228896', 'lat': -23.2075675, 'country': 'Brazil'},
{'address': 'Avenida Maria Aparecida Veríssimo Madureira Ramos', 'neighborhood': 'Jardim Santa Inês I', 'state': 'SP', 'abbreviation_country': 'BR', 'abbreviation_state': 'SP', 'locality': 'São José dos Campos', 'type': 'postal_code', 'lng': -45.7958341, 'postal_code': '12248380', 'lat': -23.1739005, 'country': 'Brazil'},
{'address': 'Rua Maria Aparecida de Brito Moura', 'neighborhood': 'Conjunto Residencial Esplanada do Sol', 'state': 'SP', 'abbreviation_country': 'BR', 'abbreviation_state': 'SP', 'locality': 'São José dos Campos', 'type': 'postal_code', 'lng': -45.9107498, 'postal_code': '12244640', 'lat': -23.1900902, 'country': 'Brazil'},
{'address': 'Rua Maria Aparecida de Faria', 'neighborhood': 'Urbanova', 'state': 'SP', 'abbreviation_country': 'BR', 'abbreviation_state': 'SP', 'locality': 'São José dos Campos', 'type': 'postal_code', 'lng': -45.9395204, 'postal_code': '12244270', 'lat': -23.2010591, 'country': 'Brazil'},
{'locality': 'São José dos Campos', 'neighborhood': 'Residencial Armando Moreira Righi', 'state': 'SP', 'abbreviation_country': 'BR', 'type': 'postal_code', 'country': 'Brazil', 'lng': -45.7648914, 'abbreviation_state': 'SP', 'lat': -23.1343597, 'postal_code': '12247792'},
{'address': 'Rua Maria Aparecida de O. Santos', 'neighborhood': 'Residencial União', 'state': 'SP', 'abbreviation_country': 'BR', 'abbreviation_state': 'SP', 'locality': 'São José dos Campos', 'type': 'postal_code', 'lng': -45.90252690000001, 'postal_code': '12239035', 'lat': -23.2637623, 'country': 'Brazil'},
{'locality': 'São Paulo', 'postal_code': '12224784', 'state': 'SP', 'abbreviation_country': 'BR', 'type': 'postal_code', 'lng': -46.63330939999999, 'abbreviation_state': 'SP', 'lat': -23.5505199, 'country': 'Brazil'},
{'locality': 'São Paulo', 'postal_code': '12231814', 'state': 'SP', 'abbreviation_country': 'BR', 'type': 'postal_code', 'lng': -46.63330939999999, 'abbreviation_state': 'SP', 'lat': -23.5505199, 'country': 'Brazil'},
{'address': 'Rua Maria Augusta Pereira dos Santos', 'neighborhood': 'Cidade Morumbi', 'state': 'SP', 'abbreviation_country': 'BR', 'abbreviation_state': 'SP', 'locality': 'São José dos Campos', 'type': 'postal_code', 'lng': -45.8989924, 'postal_code': '12236470', 'lat': -23.2526113, 'country': 'Brazil'},
{'address': 'Rua Maria Auxiliadora Monção Antinopolis Bonafé', 'neighborhood': 'Campos de São José', 'state': 'SP', 'abbreviation_country': 'BR', 'abbreviation_state': 'SP', 'locality': 'São José dos Campos', 'type': 'postal_code', 'lng': -45.81207329999999, 'postal_code': '12226710', 'lat': -23.2100673, 'country': 'Brazil'},
{'address': 'Rua Maria Benedita Teixeira Leite', 'neighborhood': 'Jardim Irapuã', 'state': 'SP', 'abbreviation_country': 'BR', 'abbreviation_state': 'SP', 'locality': 'Taboão da Serra', 'type': 'postal_code', 'lng': -46.78065429999999, 'postal_code': '12228314', 'lat': -23.6230488, 'country': 'Brazil'},
{'address': 'Rua Maria Benedita Gama', 'neighborhood': 'Jardim Santa Inês III', 'state': 'SP', 'abbreviation_country': 'BR', 'abbreviation_state': 'SP', 'locality': 'São José dos Campos', 'type': 'postal_code', 'lng': -45.7890407, 'postal_code': '12248508', 'lat': -23.1734167, 'country': 'Brazil'},
{'address': 'Rua Maria Carolina de Jesus', 'neighborhood': 'Jardim Americano', 'state': 'SP', 'abbreviation_country': 'BR', 'abbreviation_state': 'SP', 'locality': 'São José dos Campos', 'type': 'postal_code', 'lng': -45.8125169, 'postal_code': '12225100', 'lat': -23.1804075, 'country': 'Brazil'},
{'address': 'Rua Maria Conceição da Cunha', 'neighborhood': 'Alto da Ponte', 'state': 'SP', 'abbreviation_country': 'BR', 'abbreviation_state': 'SP', 'locality': 'São José dos Campos', 'type': 'postal_code', 'lng': -45.90053270000001, 'postal_code': '12212520', 'lat': -23.1529292, 'country': 'Brazil'},
{'address': 'Rua Maria Conceição da Silva', 'neighborhood': 'Vila Cândida', 'state': 'SP', 'abbreviation_country': 'BR', 'abbreviation_state': 'SP', 'locality': 'São José dos Campos', 'type': 'postal_code', 'lng': -45.9094813, 'postal_code': '12213503', 'lat': -23.137868, 'country': 'Brazil'},
{'address': 'Rua Dom Pedro II', 'neighborhood': 'Centro', 'state': 'SP', 'abbreviation_country': 'BR', 'abbreviation_state': 'SP', 'locality': 'Botucatu', 'type': 'postal_code', 'lng': -48.4350434, 'postal_code': '12232751', 'lat': -22.8841263, 'country': 'Brazil'},
{'address': 'Avenida Maria Cândida Delgado', 'postal_code': '12213531', 'state': 'SP', 'abbreviation_country': 'BR', 'locality': 'São José dos Campos', 'type': 'postal_code', 'lng': -45.9012925, 'abbreviation_state': 'SP', 'lat': -23.1450987, 'country': 'Brazil'},
{'address': 'Avenida Maria Cândida Delgado', 'neighborhood': 'Jardim Santa Matilde', 'state': 'SP', 'abbreviation_country': 'BR', 'abbreviation_state': 'SP', 'locality': 'São José dos Campos', 'type': 'postal_code', 'lng': -45.8986599, 'postal_code': '12213573', 'lat': -23.1489039, 'country': 'Brazil'},
{'address': 'Rua Maria Cândida Leite de Castro', 'neighborhood': 'Jardim Santa Inês I', 'state': 'SP', 'abbreviation_country': 'BR', 'abbreviation_state': 'SP', 'locality': 'São José dos Campos', 'type': 'postal_code', 'lng': -45.7923078, 'postal_code': '12248280', 'lat': -23.1739155, 'country': 'Brazil'},
{'address': 'Rua Maria Cândida Ferreira Lacerda', 'neighborhood': 'Vila Veloso', 'state': 'SP', 'abbreviation_country': 'BR', 'abbreviation_state': 'SP', 'locality': 'Carapicuíba', 'type': 'postal_code', 'lng': -46.83081060000001, 'postal_code': '12214461', 'lat': -23.5501774, 'country': 'Brazil'},
{'locality': 'São Paulo', 'postal_code': '12234882', 'state': 'SP', 'abbreviation_country': 'BR', 'type': 'postal_code', 'lng': -46.63330939999999, 'abbreviation_state': 'SP', 'lat': -23.5505199, 'country': 'Brazil'},
{'address': 'Rua Maria Augusta Pereira dos Santos', 'neighborhood': 'Cidade Morumbi', 'state': 'SP', 'abbreviation_country': 'BR', 'abbreviation_state': 'SP', 'locality': 'São José dos Campos', 'type': 'postal_code', 'lng': -45.8988176, 'postal_code': '12246090', 'lat': -23.2496901, 'country': 'Brazil'},
{'locality': 'São Paulo', 'postal_code': '12213700', 'state': 'SP', 'abbreviation_country': 'BR', 'type': 'postal_code', 'lng': -46.63330939999999, 'abbreviation_state': 'SP', 'lat': -23.5505199, 'country': 'Brazil'},
{'address': 'Rua Maria Ferreira dos Santos', 'neighborhood': 'Conjunto Residencial Elmano Veloso', 'state': 'SP', 'abbreviation_country': 'BR', 'abbreviation_state': 'SP', 'locality': 'São José dos Campos', 'type': 'postal_code', 'lng': -45.8967982, 'postal_code': '12234570', 'lat': -23.278323, 'country': 'Brazil'},
{'address': 'Rua Maria Francisca Fróes', 'neighborhood': 'Jardim São Dimas', 'state': 'SP', 'abbreviation_country': 'BR', 'abbreviation_state': 'SP', 'locality': 'São José dos Campos', 'type': 'postal_code', 'lng': -45.8879565, 'postal_code': '12245410', 'lat': -23.2000245, 'country': 'Brazil'},
{'address': 'Rua Maria Francisca dos Santos', 'neighborhood': 'Jardim Minas Gerais', 'state': 'SP', 'abbreviation_country': 'BR', 'abbreviation_state': 'SP', 'locality': 'São José dos Campos', 'type': 'postal_code', 'lng': -45.90692420000001, 'postal_code': '12213130', 'lat': -23.1561607, 'country': 'Brazil'},
{'address': 'Rua Ribeirão Pires', 'neighborhood': 'Nova Petrópolis', 'state': 'SP', 'abbreviation_country': 'BR', 'abbreviation_state': 'SP', 'locality': 'São Bernardo do Campo', 'type': 'postal_code', 'lng': -46.5388072, 'postal_code': '12247359', 'lat': -23.7089082, 'country': 'Brazil'},
{'address': 'Rua Maria Helena Ferreira', 'neighborhood': 'Campo dos Alemães', 'state': 'SP', 'abbreviation_country': 'BR', 'abbreviation_state': 'SP', 'locality': 'São José dos Campos', 'type': 'postal_code', 'lng': -45.9018464, 'postal_code': '12239067', 'lat': -23.2734073, 'country': 'Brazil'},
{'address': 'Rua Maria Helena Friggi de Lima', 'neighborhood': 'Parque Nova Esperança', 'state': 'SP', 'abbreviation_country': 'BR', 'abbreviation_state': 'SP', 'locality': 'São José dos Campos', 'type': 'postal_code', 'lng': -45.783261, 'postal_code': '12226082', 'lat': -23.204922, 'country': 'Brazil'},
{'address': 'Rua Maria Helena da Silva', 'neighborhood': 'Jardim Torrao de Ouro', 'state': 'SP', 'abbreviation_country': 'BR', 'abbreviation_state': 'SP', 'locality': 'São José dos Campos', 'type': 'postal_code', 'lng': -45.8666925, 'postal_code': '12229833', 'lat': -23.2755817, 'country': 'Brazil'},
{'locality': 'São Paulo', 'postal_code': '12228273', 'state': 'SP', 'abbreviation_country': 'BR', 'type': 'postal_code', 'lng': -46.63330939999999, 'abbreviation_state': 'SP', 'lat': -23.5505199, 'country': 'Brazil'},
{'address': 'Rua Maria Isabel Mendes', 'neighborhood': 'Jardim Nova Michigan', 'state': 'SP', 'abbreviation_country': 'BR', 'abbreviation_state': 'SP', 'locality': 'São José dos Campos', 'type': 'postal_code', 'lng': -45.7946762, 'postal_code': '12225450', 'lat': -23.1881009, 'country': 'Brazil'},
{'address': 'Rua Maria Isabel Mendes Gomes', 'neighborhood': 'Condomínio Chácara dos Eucaliptos', 'state': 'SP', 'abbreviation_country': 'BR', 'abbreviation_state': 'SP', 'locality': 'São José dos Campos', 'type': 'postal_code', 'lng': -45.9318994, 'postal_code': '12246052', 'lat': -23.2018044, 'country': 'Brazil'},
{'address': 'Rua Maria Isabel da Silva', 'neighborhood': 'Residencial Armando Moreira Righi', 'state': 'SP', 'abbreviation_country': 'BR', 'abbreviation_state': 'SP', 'locality': 'São José dos Campos', 'type': 'postal_code', 'lng': -45.7650552, 'postal_code': '12247828', 'lat': -23.1357965, 'country': 'Brazil'},
{'locality': 'São Paulo', 'postal_code': '12244012', 'state': 'SP', 'abbreviation_country': 'BR', 'type': 'postal_code', 'lng': -46.63330939999999, 'abbreviation_state': 'SP', 'lat': -23.5505199, 'country': 'Brazil'},
{'address': 'Rua Maria José Amaral Alves', 'neighborhood': 'Urbanova', 'state': 'SP', 'abbreviation_country': 'BR', 'abbreviation_state': 'SP', 'locality': 'São José dos Campos', 'type': 'postal_code', 'lng': -45.9561929, 'postal_code': '12244861', 'lat': -23.2040089, 'country': 'Brazil'},
{'address': 'Rua Maria José Gonçalves', 'neighborhood': 'Jardim Del Rey', 'state': 'SP', 'abbreviation_country': 'BR', 'abbreviation_state': 'SP', 'locality': 'São José dos Campos', 'type': 'postal_code', 'lng': -45.8826659, 'postal_code': '12232232', 'lat': -23.2617673, 'country': 'Brazil'},
{'address': 'Rua Maria José Guido Brogliato Freire', 'neighborhood': 'Urbanova', 'state': 'SP', 'abbreviation_country': 'BR', 'abbreviation_state': 'SP', 'locality': 'São José dos Campos', 'type': 'postal_code', 'lng': -45.9435063, 'postal_code': '12244440', 'lat': -23.2029531, 'country': 'Brazil'},
{'address': 'Rua Maria José Machado', 'neighborhood': 'Vila Cândida', 'state': 'SP', 'abbreviation_country': 'BR', 'abbreviation_state': 'SP', 'locality': 'São José dos Campos', 'type': 'postal_code', 'lng': -45.9074737, 'postal_code': '12213430', 'lat': -23.1396237, 'country': 'Brazil'},
{'address': 'Rua Maria José Neme Calil', 'neighborhood': 'Conjunto Residencial Trinta e Um de Marco', 'state': 'SP', 'abbreviation_country': 'BR', 'abbreviation_state': 'SP', 'locality': 'São José dos Campos', 'type': 'postal_code', 'lng': -45.9150143, 'postal_code': '12237530', 'lat': -23.2457141, 'country': 'Brazil'},
{'address': 'Rua Maria José Ribeiro', 'neighborhood': 'Jardim Santo Onofre', 'state': 'SP', 'abbreviation_country': 'BR', 'abbreviation_state': 'SP', 'locality': 'São José dos Campos', 'type': 'postal_code', 'lng': -45.8299624, 'postal_code': '12228006', 'lat': -23.2503851, 'country': 'Brazil'},
{'locality': 'São Paulo', 'postal_code': '12244008', 'state': 'SP', 'abbreviation_country': 'BR', 'type': 'postal_code', 'lng': -46.63330939999999, 'abbreviation_state': 'SP', 'lat': -23.5505199, 'country': 'Brazil'},
{'address': 'Rua Maria Júlia Dias Veneziani', 'neighborhood': 'Chácaras Pousada do Vale', 'state': 'SP', 'abbreviation_country': 'BR', 'abbreviation_state': 'SP', 'locality': 'São José dos Campos', 'type': 'postal_code', 'lng': -45.7915103, 'postal_code': '12226731', 'lat': -23.2201443, 'country': 'Brazil'},
{'address': 'Rua Maria Lancini', 'postal_code': '12226350', 'state': 'SP', 'abbreviation_country': 'BR', 'locality': 'São José dos Campos', 'type': 'postal_code', 'lng': -45.8060537, 'abbreviation_state': 'SP', 'lat': -23.2146478, 'country': 'Brazil'},
{'locality': 'São Paulo', 'postal_code': '12244028', 'state': 'SP', 'abbreviation_country': 'BR', 'type': 'postal_code', 'lng': -46.63330939999999, 'abbreviation_state': 'SP', 'lat': -23.5505199, 'country': 'Brazil'},
{'address': 'Rua Maria Lima Antunes Ribeiro', 'neighborhood': 'Vila Ema', 'state': 'SP', 'abbreviation_country': 'BR', 'abbreviation_state': 'SP', 'locality': 'São José dos Campos', 'type': 'postal_code', 'lng': -45.896642, 'postal_code': '12243520', 'lat': -23.2083858, 'country': 'Brazil'},
{'address': 'Rua Maria Luciana de Jesus', 'neighborhood': 'Cidade Morumbi', 'state': 'SP', 'abbreviation_country': 'BR', 'abbreviation_state': 'SP', 'locality': 'São José dos Campos', 'type': 'postal_code', 'lng': -45.9065873, 'postal_code': '12236801', 'lat': -23.2447925, 'country': 'Brazil'},
{'address': 'Rua Maria Luiza Auricchio de Oliveira', 'neighborhood': 'Residencial Juritis', 'state': 'SP', 'abbreviation_country': 'BR', 'abbreviation_state': 'SP', 'locality': 'São José dos Campos', 'type': 'postal_code', 'lng': -45.8282403, 'postal_code': '12228261', 'lat': -23.2555784, 'country': 'Brazil'},
{'address': 'Rua Maria Luíza Espírito Santo', 'neighborhood': 'Santana', 'state': 'SP', 'abbreviation_country': 'BR', 'abbreviation_state': 'SP', 'locality': 'São José dos Campos', 'type': 'postal_code', 'lng': -45.8993692, 'postal_code': '12211841', 'lat': -23.1565404, 'country': 'Brazil'},
{'locality': 'São Paulo', 'postal_code': '12213630', 'state': 'SP', 'abbreviation_country': 'BR', 'type': 'postal_code', 'lng': -46.63330939999999, 'abbreviation_state': 'SP', 'lat': -23.5505199, 'country': 'Brazil'},
{'address': 'Rua Maria Luísa Rocha', 'neighborhood': 'Parque Residencial Flamboyant', 'state': 'SP', 'abbreviation_country': 'BR', 'abbreviation_state': 'SP', 'locality': 'São José dos Campos', 'type': 'postal_code', 'lng': -45.84961269999999, 'postal_code': '12227797', 'lat': -23.2134936, 'country': 'Brazil'},
{'neighborhood': 'Conjunto Papa João Paulo II', 'state': 'SP', 'abbreviation_country': 'BR', 'type': 'postal_code', 'country': 'Brazil', 'lng': -45.8843753, 'abbreviation_state': 'SP', 'lat': -23.2798882, 'postal_code': '12232411'},
{'address': 'Rua Maria Marcelina do Santos', 'neighborhood': 'Residencial Armando Moreira Righi', 'state': 'SP', 'abbreviation_country': 'BR', 'abbreviation_state': 'SP', 'locality': 'São José dos Campos', 'type': 'postal_code', 'lng': -45.7655965, 'postal_code': '12247822', 'lat': -23.1377421, 'country': 'Brazil'},
{'address': 'Travessa Maria Marta', 'neighborhood': 'Jardim Santa Matilde', 'state': 'SP', 'abbreviation_country': 'BR', 'abbreviation_state': 'SP', 'locality': 'São José dos Campos', 'type': 'postal_code', 'lng': -45.9031834, 'postal_code': '12213590', 'lat': -23.1400711, 'country': 'Brazil'},
{'address': 'Rua Maria Martins Ottoboni', 'neighborhood': 'Campo dos Alemães', 'state': 'SP', 'abbreviation_country': 'BR', 'abbreviation_state': 'SP', 'locality': 'São José dos Campos', 'type': 'postal_code', 'lng': -45.8966366, 'postal_code': '12239420', 'lat': -23.2716616, 'country': 'Brazil'},
{'address': 'Rua Maria Mercedes Ferreira Maldos', 'neighborhood': 'Monte Castelo', 'state': 'SP', 'abbreviation_country': 'BR', 'abbreviation_state': 'SP', 'locality': 'São José dos Campos', 'type': 'postal_code', 'lng': -45.8700491, 'postal_code': '12215540', 'lat': -23.1863956, 'country': 'Brazil'},
{'address': 'Rua Maria Montezi Santana', 'neighborhood': 'Jardim Castanheira', 'state': 'SP', 'abbreviation_country': 'BR', 'abbreviation_state': 'SP', 'locality': 'São José dos Campos', 'type': 'postal_code', 'lng': -45.7929196, 'postal_code': '12225320', 'lat': -23.1840383, 'country': 'Brazil'},
{'locality': 'São Paulo', 'postal_code': '12228220', 'state': 'SP', 'abbreviation_country': 'BR', 'type': 'postal_code', 'lng': -46.63330939999999, 'abbreviation_state': 'SP', 'lat': -23.5505199, 'country': 'Brazil'},
{'address': 'Rua Maria Otília Araújo Lima Oliveira', 'neighborhood': 'Jardim Nova Republica', 'state': 'SP', 'abbreviation_country': 'BR', 'abbreviation_state': 'SP', 'locality': 'São José dos Campos', 'type': 'postal_code', 'lng': -45.902719, 'postal_code': '12234894', 'lat': -23.2882229, 'country': 'Brazil'},
{'address': 'Rua Maria Palmira Ferreira Ivo', 'neighborhood': 'Bosque dos Eucaliptos', 'state': 'SP', 'abbreviation_country': 'BR', 'abbreviation_state': 'SP', 'locality': 'São José dos Campos', 'type': 'postal_code', 'lng': -45.8869748, 'postal_code': '12233640', 'lat': -23.249778, 'country': 'Brazil'},
{'address': 'Rua Maria Pereira de Silva', 'neighborhood': 'Residencial Dom Bosco', 'state': 'SP', 'abbreviation_country': 'BR', 'abbreviation_state': 'SP', 'locality': 'São José dos Campos', 'type': 'postal_code', 'lng': -45.79267249999999, 'postal_code': '12225866', 'lat': -23.1971228, 'country': 'Brazil'},
{'address': 'Rua Maria Peró Tinoco', 'neighborhood': 'Conjunto Residencial Trinta e Um de Marco', 'state': 'SP', 'abbreviation_country': 'BR', 'abbreviation_state': 'SP', 'locality': 'São José dos Campos', 'type': 'postal_code', 'lng': -45.91203240000001, 'postal_code': '12237100', 'lat': -23.245372, 'country': 'Brazil'},
{'address': 'Rua Maria Pinotti Bicudo', 'neighborhood': 'Santana', 'state': 'SP', 'abbreviation_country': 'BR', 'abbreviation_state': 'SP', 'locality': 'São José dos Campos', 'type': 'postal_code', 'lng': -45.8986182, 'postal_code': '12211820', 'lat': -23.1557639, 'country': 'Brazil'},
{'address': 'Rua Maria Pires da Silva', 'neighborhood': 'Vila das Flores', 'state': 'SP', 'abbreviation_country': 'BR', 'abbreviation_state': 'SP', 'type': 'postal_code', 'lng': -45.8875123, 'postal_code': '12234758', 'lat': -23.2893556, 'country': 'Brazil'},
{'address': 'Rua Maria Quitéria', 'neighborhood': 'ジャルジン・ヴィトーリア', 'state': 'SP', 'abbreviation_country': 'BR', 'abbreviation_state': 'SP', 'locality': 'Marília', 'type': 'postal_code', 'lng': -49.9213496, 'postal_code': '12242671', 'lat': -22.2407976, 'country': 'Brazil'},
{'address': 'Rua Maria Renata Alcântara Manfredini', 'neighborhood': 'Alto da Ponte', 'state': 'SP', 'abbreviation_country': 'BR', 'abbreviation_state': 'SP', 'locality': 'São José dos Campos', 'type': 'postal_code', 'lng': -45.9030839, 'postal_code': '12212371', 'lat': -23.1512903, 'country': 'Brazil'},
{'address': 'Rua Maria Ribeiro Martins', 'neighborhood': 'Jardim Madureira', 'state': 'SP', 'abbreviation_country': 'BR', 'abbreviation_state': 'SP', 'locality': 'São José dos Campos', 'type': 'postal_code', 'lng': -45.8833907, 'postal_code': '12232300', 'lat': -23.2541426, 'country': 'Brazil'},
{'address': 'Rua Maria Rita de Pinho', 'neighborhood': 'Residencial Ana Maria', 'state': 'SP', 'abbreviation_country': 'BR', 'abbreviation_state': 'SP', 'locality': 'São José dos Campos', 'type': 'postal_code', 'lng': -45.8055528, 'postal_code': '12224818', 'lat': -23.1817829, 'country': 'Brazil'},
{'address': 'Rua Maria Rosa da Silva', 'neighborhood': 'Conjunto Residencial Elmano Veloso', 'state': 'SP', 'abbreviation_country': 'BR', 'abbreviation_state': 'SP', 'locality': 'São José dos Campos', 'type': 'postal_code', 'lng': -45.8950445, 'postal_code': '12234630', 'lat': -23.2800007, 'country': 'Brazil'},
{'address': 'Rua Maria Rosa de Oliveira Silva', 'neighborhood': 'Vila Iracema', 'state': 'SP', 'abbreviation_country': 'BR', 'abbreviation_state': 'SP', 'locality': 'São José dos Campos', 'type': 'postal_code', 'lng': -45.8221564, 'postal_code': '12228311', 'lat': -23.2397109, 'country': 'Brazil'},
{'address': 'Rua Maria Roseclair Oliveira', 'neighborhood': 'Campo dos Alemães', 'state': 'SP', 'abbreviation_country': 'BR', 'abbreviation_state': 'SP', 'locality': 'São José dos Campos', 'type': 'postal_code', 'lng': -45.895467, 'postal_code': '12239470', 'lat': -23.2691071, 'country': 'Brazil'},
{'address': 'Rua Maria Sabino Ângelo', 'neighborhood': 'Campo dos Alemães', 'state': 'SP', 'abbreviation_country': 'BR', 'abbreviation_state': 'SP', 'locality': 'São José dos Campos', 'type': 'postal_code', 'lng': -45.896513, 'postal_code': '12239451', 'lat': -23.2709085, 'country': 'Brazil'},
{'address': 'Rua Maria Salena de Assis', 'neighborhood': 'Jardim Nova Detroit', 'state': 'SP', 'abbreviation_country': 'BR', 'abbreviation_state': 'SP', 'locality': 'São José dos Campos', 'type': 'postal_code', 'lng': -45.80887569999999, 'postal_code': '12224700', 'lat': -23.1681878, 'country': 'Brazil'},
{'address': 'Rua Maria Tereza Cardoso Batista', 'neighborhood': 'Jardim Colonial', 'state': 'SP', 'abbreviation_country': 'BR', 'abbreviation_state': 'SP', 'locality': 'São José dos Campos', 'type': 'postal_code', 'lng': -45.8950389, 'postal_code': '12234460', 'lat': -23.2823491, 'country': 'Brazil'},
{'address': 'Rua Maria Tereza Pereira Guedes de Melo', 'neighborhood': 'Conjunto Residencial Trinta e Um de Marco', 'state': 'SP', 'abbreviation_country': 'BR', 'abbreviation_state': 'SP', 'locality': 'São José dos Campos', 'type': 'postal_code', 'lng': -45.915762, 'postal_code': '12237661', 'lat': -23.2441662, 'country': 'Brazil'},
{'address': 'Rua Maria Vera Prado Machado', 'neighborhood': 'Parque Interlagos', 'state': 'SP', 'abbreviation_country': 'BR', 'abbreviation_state': 'SP', 'locality': 'São José dos Campos', 'type': 'postal_code', 'lng': -45.8654981, 'postal_code': '12229827', 'lat': -23.2744302, 'country': 'Brazil'},
{'address': 'Rua Maria da Conceição Chaves Monteiro', 'neighborhood': 'Urbanova', 'state': 'SP', 'abbreviation_country': 'BR', 'abbreviation_state': 'SP', 'type': 'postal_code', 'lng': -45.9344027, 'postal_code': '12244220', 'lat': -23.1984276, 'country': 'Brazil'},
{'address': 'Rua Maria da Conceição Maia', 'neighborhood': 'ヴィーラ・ド・テゾウロ', 'state': 'SP', 'abbreviation_country': 'BR', 'abbreviation_state': 'SP', 'locality': 'São José dos Campos', 'type': 'postal_code', 'lng': -45.8403157, 'postal_code': '12221650', 'lat': -23.1670122, 'country': 'Brazil'},
{'address': 'Rua Maria da Glória Serpa Martins', 'neighborhood': 'Urbanova', 'state': 'SP', 'abbreviation_country': 'BR', 'abbreviation_state': 'SP', 'locality': 'São José dos Campos', 'type': 'postal_code', 'lng': -45.9619593, 'postal_code': '12244883', 'lat': -23.2000275, 'country': 'Brazil'},
{'locality': 'São José dos Campos', 'neighborhood': 'Urbanova', 'state': 'SP', 'abbreviation_country': 'BR', 'type': 'postal_code', 'country': 'Brazil', 'lng': -45.9440393, 'abbreviation_state': 'SP', 'lat': -23.2029368, 'postal_code': '12244874'},
{'locality': 'São José dos Campos', 'neighborhood': 'Campo dos Alemães', 'state': 'SP', 'abbreviation_country': 'BR', 'type': 'postal_code', 'country': 'Brazil', 'lng': -45.8968392, 'abbreviation_state': 'SP', 'lat': -23.2695261, 'postal_code': '12239141'},
{'address': 'Rua Maria de Andrade Vieira', 'neighborhood': 'Jardim Mariana II', 'state': 'SP', 'abbreviation_country': 'BR', 'abbreviation_state': 'SP', 'locality': 'São José dos Campos', 'type': 'postal_code', 'lng': -45.80861789999999, 'postal_code': '12226884', 'lat': -23.2187239, 'country': 'Brazil'},
{'address': 'Rua Maria de Caires Silveira', 'neighborhood': 'Conjunto Residencial Esplanada do Sol', 'state': 'SP', 'abbreviation_country': 'BR', 'abbreviation_state': 'SP', 'locality': 'São José dos Campos', 'type': 'postal_code', 'lng': -45.910749, 'postal_code': '12244710', 'lat': -23.187147, 'country': 'Brazil'},
{'address': 'Rua Maria de Lourdes César Leite', 'neighborhood': 'Eugênio de Mello', 'state': 'SP', 'abbreviation_country': 'BR', 'abbreviation_state': 'SP', 'locality': 'São José dos Campos', 'type': 'postal_code', 'lng': -45.78318549999999, 'postal_code': '12247170', 'lat': -23.1396708, 'country': 'Brazil'},
{'address': 'Rua Maria de Lourdes Damasceno Peres', 'neighborhood': 'Campo dos Alemães', 'state': 'SP', 'abbreviation_country': 'BR', 'abbreviation_state': 'SP', 'locality': 'São José dos Campos', 'type': 'postal_code', 'lng': -45.9030771, 'postal_code': '12239090', 'lat': -23.2715953, 'country': 'Brazil'},
{'address': 'Rua Maria de Lourdes Florindo', 'neighborhood': 'Loteamento Residencial Vista Linda', 'state': 'SP', 'abbreviation_country': 'BR', 'abbreviation_state': 'SP', 'locality': 'São José dos Campos', 'type': 'postal_code', 'lng': -45.861185, 'postal_code': '12220055', 'lat': -23.1747144, 'country': 'Brazil'},
{'address': 'Avenida Maria de Lourdes Friggi', 'neighborhood': 'Urbanova', 'state': 'SP', 'abbreviation_country': 'BR', 'abbreviation_state': 'SP', 'locality': 'São José dos Campos', 'type': 'postal_code', 'lng': -45.9544635, 'postal_code': '12244882', 'lat': -23.2022275, 'country': 'Brazil'},
{'address': 'Avenida Maria de Lourdes Medeiros de Assis', 'neighborhood': 'Campo dos Alemães', 'state': 'SP', 'abbreviation_country': 'BR', 'abbreviation_state': 'SP', 'locality': 'São José dos Campos', 'type': 'postal_code', 'lng': -45.8894071, 'postal_code': '12239580', 'lat': -23.2724114, 'country': 'Brazil'},
{'address': 'Rua Maria de Lurdes Pereira', 'neighborhood': 'Jardim Terras do Sul', 'state': 'SP', 'abbreviation_country': 'BR', 'abbreviation_state': 'SP', 'locality': 'São José dos Campos', 'type': 'postal_code', 'lng': -45.8917873, 'postal_code': '12236069', 'lat': -23.2461737, 'country': 'Brazil'},
{'address': 'Rua Maria de Lourdes de Andrade Coltro', 'neighborhood': 'Jardim Santo Onofre', 'state': 'SP', 'abbreviation_country': 'BR', 'abbreviation_state': 'SP', 'locality': 'São José dos Campos', 'type': 'postal_code', 'lng': -45.8328069, 'postal_code': '12228014', 'lat': -23.2493754, 'country': 'Brazil'},
{'address': 'Rua Maria de Lurdes Barbosa', 'neighborhood': 'Conjunto Residencial Esplanada do Sol', 'state': 'SP', 'abbreviation_country': 'BR', 'abbreviation_state': 'SP', 'locality': 'São José dos Campos', 'type': 'postal_code', 'lng': -45.9130163, 'postal_code': '12244690', 'lat': -23.1882207, 'country': 'Brazil'},
{'address': 'Rua Maria de Souza', 'neighborhood': 'Conjunto Residencial Nosso Teto', 'state': 'SP', 'abbreviation_country': 'BR', 'abbreviation_state': 'SP', 'locality': 'São José dos Campos', 'type': 'postal_code', 'lng': -45.805164, 'postal_code': '12228254', 'lat': -23.2488261, 'country': 'Brazil'},
{'address': 'Rua Maria do Carmo de Miranda Castelo Branco', 'neighborhood': 'Conjunto Residencial Trinta e Um de Marco', 'state': 'SP', 'abbreviation_country': 'BR', 'abbreviation_state': 'SP', 'locality': 'São José dos Campos', 'type': 'postal_code', 'lng': -45.9176521, 'postal_code': '12237491', 'lat': -23.2501271, 'country': 'Brazil'},
{'address': 'Rua Mariana', 'neighborhood': 'Bosque dos Eucaliptos', 'state': 'SP', 'abbreviation_country': 'BR', 'abbreviation_state': 'SP', 'locality': 'São José dos Campos', 'type': 'postal_code', 'lng': -45.8893458, 'postal_code': '12233220', 'lat': -23.2376484, 'country': 'Brazil'},
{'address': 'Avenida Mariana Andrade', 'neighborhood': 'Jardim Mariana II', 'state': 'SP', 'abbreviation_country': 'BR', 'abbreviation_state': 'SP', 'locality': 'São José dos Campos', 'type': 'postal_code', 'lng': -45.80703949999999, 'postal_code': '12226886', 'lat': -23.2167227, 'country': 'Brazil'},
{'address': 'Rua Maricá', 'neighborhood': 'Jardim Satélite', 'state': 'SP', 'abbreviation_country': 'BR', 'abbreviation_state': 'SP', 'locality': 'São José dos Campos', 'type': 'postal_code', 'lng': -45.8827617, 'postal_code': '12230100', 'lat': -23.2261672, 'country': 'Brazil'},
{'address': 'Rua Marina Bona Ferreira Honório', 'neighborhood': 'Portal de Minas', 'state': 'SP', 'abbreviation_country': 'BR', 'abbreviation_state': 'SP', 'locality': 'São José dos Campos', 'type': 'postal_code', 'lng': -45.890298, 'postal_code': '12211147', 'lat': -23.1596724, 'country': 'Brazil'},
{'address': 'Rua Mário Cordeiro', 'neighborhood': 'Jardim Nova Republica', 'state': 'SP', 'abbreviation_country': 'BR', 'abbreviation_state': 'SP', 'locality': 'São José dos Campos', 'type': 'postal_code', 'lng': -45.8986501, 'postal_code': '12234866', 'lat': -23.2933488, 'country': 'Brazil'},
{'locality': 'São Paulo', 'postal_code': '12244025', 'state': 'SP', 'abbreviation_country': 'BR', 'type': 'postal_code', 'lng': -46.63330939999999, 'abbreviation_state': 'SP', 'lat': -23.5505199, 'country': 'Brazil'},
{'address': 'Rua Marlene Aparecida de Jesus', 'neighborhood': 'Jardim Imperial', 'state': 'SP', 'abbreviation_country': 'BR', 'abbreviation_state': 'SP', 'locality': 'São José dos Campos', 'type': 'postal_code', 'lng': -45.8984971, 'postal_code': '12234007', 'lat': -23.2832192, 'country': 'Brazil'},
{'locality': 'São Paulo', 'postal_code': '12248305', 'state': 'SP', 'abbreviation_country': 'BR', 'type': 'postal_code', 'lng': -46.63330939999999, 'abbreviation_state': 'SP', 'lat': -23.5505199, 'country': 'Brazil'},
{'address': 'Praça Marquês de Itu', 'neighborhood': 'Jardim das Colinas', 'state': 'SP', 'abbreviation_country': 'BR', 'abbreviation_state': 'SP', 'locality': 'São José dos Campos', 'type': 'postal_code', 'lng': -45.90620970000001, 'postal_code': '12242043', 'lat': -23.2092385, 'country': 'Brazil'},
{'address': 'Rua Marquês de Maricá', 'neighborhood': 'Jardim Colonial', 'state': 'SP', 'abbreviation_country': 'BR', 'abbreviation_state': 'SP', 'locality': 'São José dos Campos', 'type': 'postal_code', 'lng': -45.8992693, 'postal_code': '12234400', 'lat': -23.2806154, 'country': 'Brazil'},
{'address': 'Praça Marte', 'neighborhood': 'Jardim da Granja', 'state': 'SP', 'abbreviation_country': 'BR', 'abbreviation_state': 'SP', 'locality': 'São José dos Campos', 'type': 'postal_code', 'lng': -45.8570387, 'postal_code': '12227430', 'lat': -23.207734, 'country': 'Brazil'},
{'address': 'Rua Martim de Sá', 'neighborhood': 'Jardim Satélite', 'state': 'SP', 'abbreviation_country': 'BR', 'abbreviation_state': 'SP', 'locality': 'São José dos Campos', 'type': 'postal_code', 'lng': -45.8825538, 'postal_code': '12230690', 'lat': -23.2335289, 'country': 'Brazil'},
{'address': 'Rua Martinica', 'neighborhood': 'Cidade Vista Verde', 'state': 'SP', 'abbreviation_country': 'BR', 'abbreviation_state': 'SP', 'locality': 'São José dos Campos', 'type': 'postal_code', 'lng': -45.8345278, 'postal_code': '12223290', 'lat': -23.1818527, 'country': 'Brazil'},
{'address': 'Rua Martins Fontes', 'neighborhood': 'Monte Castelo', 'state': 'SP', 'abbreviation_country': 'BR', 'abbreviation_state': 'SP', 'locality': 'São José dos Campos', 'type': 'postal_code', 'lng': -45.8729902, 'postal_code': '12215280', 'lat': -23.1812647, 'country': 'Brazil'},
{'address': 'Estrada Municipal Martins Guimarães', 'postal_code': '12221520', 'state': 'SP', 'abbreviation_country': 'BR', 'locality': 'São José dos Campos', 'type': 'postal_code', 'lng': -45.8356278, 'abbreviation_state': 'SP', 'lat': -23.1648019, 'country': 'Brazil'},
{'address': 'Rua Martins Pereira', 'neighborhood': 'Monte Castelo', 'state': 'SP', 'abbreviation_country': 'BR', 'abbreviation_state': 'SP', 'locality': 'São José dos Campos', 'type': 'postal_code', 'lng': -45.8702342, 'postal_code': '12215600', 'lat': -23.1896793, 'country': 'Brazil'},
{'address': 'Rua Marx', 'neighborhood': 'Conjunto Residencial Dom Pedro I', 'state': 'SP', 'abbreviation_country': 'BR', 'abbreviation_state': 'SP', 'locality': 'São José dos Campos', 'type': 'postal_code', 'lng': -45.8929308, 'postal_code': '12232530', 'lat': -23.2767133, 'country': 'Brazil'},
{'address': 'Rua Marília', 'neighborhood': 'Jardim Alvorada', 'state': 'SP', 'abbreviation_country': 'BR', 'abbreviation_state': 'SP', 'locality': 'São José dos Campos', 'type': 'postal_code', 'lng': -45.9144162, 'postal_code': '12240660', 'lat': -23.2217479, 'country': 'Brazil'},
{'address': 'Rua Massaguaçú', 'neighborhood': 'Jardim Satélite', 'state': 'SP', 'abbreviation_country': 'BR', 'abbreviation_state': 'SP', 'locality': 'São José dos Campos', 'type': 'postal_code', 'lng': -45.8823583, 'postal_code': '12230650', 'lat': -23.2312039, 'country': 'Brazil'},
{'address': 'Rua Mastruz', 'neighborhood': 'Chácaras Pousada do Vale', 'state': 'SP', 'abbreviation_country': 'BR', 'abbreviation_state': 'SP', 'locality': 'São José dos Campos', 'type': 'postal_code', 'lng': -45.7928767, 'postal_code': '12226742', 'lat': -23.2121926, 'country': 'Brazil'},
{'address': 'Travessa Mataripe', 'neighborhood': 'Jardim Vale do Sol', 'state': 'SP', 'abbreviation_country': 'BR', 'abbreviation_state': 'SP', 'locality': 'São José dos Campos', 'type': 'postal_code', 'lng': -45.9127588, 'postal_code': '12238240', 'lat': -23.2538785, 'country': 'Brazil'},
{'address': 'Rua Mathias Heil Filho', 'neighborhood': 'Conjunto Residencial Trinta e Um de Marco', 'state': 'SP', 'abbreviation_country': 'BR', 'abbreviation_state': 'SP', 'locality': 'São José dos Campos', 'type': 'postal_code', 'lng': -45.9169612, 'postal_code': '12237720', 'lat': -23.2479325, 'country': 'Brazil'},
{'locality': 'São Paulo', 'postal_code': '12224540', 'state': 'SP', 'abbreviation_country': 'BR', 'type': 'postal_code', 'lng': -46.63330939999999, 'abbreviation_state': 'SP', 'lat': -23.5505199, 'country': 'Brazil'},
{'address': 'Rua Matias Peres', 'neighborhood': 'Floradas de São José', 'state': 'SP', 'abbreviation_country': 'BR', 'abbreviation_state': 'SP', 'locality': 'São José dos Campos', 'type': 'postal_code', 'lng': -45.8886754, 'postal_code': '12230082', 'lat': -23.2199609, 'country': 'Brazil'},
{'locality': 'São José dos Campos', 'neighborhood': 'Eugênio de Mello', 'state': 'SP', 'abbreviation_country': 'BR', 'type': 'postal_code', 'country': 'Brazil', 'lng': -45.795956, 'abbreviation_state': 'SP', 'lat': -23.147078, 'postal_code': '12247241'},
{'address': 'Rua Matsustoco Taira', 'neighborhood': 'Jardim Limoeiro', 'state': 'SP', 'abbreviation_country': 'BR', 'abbreviation_state': 'SP', 'locality': 'São José dos Campos', 'type': 'postal_code', 'lng': -45.932713, 'postal_code': '12241280', 'lat': -23.2389864, 'country': 'Brazil'},
{'address': 'Rua Matão', 'neighborhood': 'Jardim das Indústrias', 'state': 'SP', 'abbreviation_country': 'BR', 'abbreviation_state': 'SP', 'locality': 'São José dos Campos', 'type': 'postal_code', 'lng': -45.92284350000001, 'postal_code': '12240240', 'lat': -23.2270286, 'country': 'Brazil'},
{'address': 'Rua Maués', 'neighborhood': 'Parque Industrial', 'state': 'SP', 'abbreviation_country': 'BR', 'abbreviation_state': 'SP', 'locality': 'São José dos Campos', 'type': 'postal_code', 'lng': -45.90736889999999, 'postal_code': '12235600', 'lat': -23.2346379, 'country': 'Brazil'},
{'address': 'Rua Maurício Vaz de Lima', 'neighborhood': 'Condomínio Chácara dos Eucaliptos', 'state': 'SP', 'abbreviation_country': 'BR', 'abbreviation_state': 'SP', 'locality': 'São José dos Campos', 'type': 'postal_code', 'lng': -45.9311302, 'postal_code': '12244891', 'lat': -23.1998686, 'country': 'Brazil'},
{'address': 'Rua Maurício Cardoso', 'neighborhood': 'Jardim Sul', 'state': 'SP', 'abbreviation_country': 'BR', 'abbreviation_state': 'SP', 'locality': 'São José dos Campos', 'type': 'postal_code', 'lng': -45.8935638, 'postal_code': '12236495', 'lat': -23.250801, 'country': 'Brazil'},
{'address': 'Rua Maurício Diamante', 'neighborhood': 'Centro', 'state': 'SP', 'abbreviation_country': 'BR', 'abbreviation_state': 'SP', 'locality': 'São José dos Campos', 'type': 'postal_code', 'lng': -45.88113389999999, 'postal_code': '12209570', 'lat': -23.1850767, 'country': 'Brazil'},
{'address': 'Rua Maurício Grabois', 'neighborhood': 'Conjunto Residencial Dom Pedro I', 'state': 'SP', 'abbreviation_country': 'BR', 'abbreviation_state': 'SP', 'locality': 'São José dos Campos', 'type': 'postal_code', 'lng': -45.8928246, 'postal_code': '12232480', 'lat': -23.2751556, 'country': 'Brazil'},
{'locality': 'São Paulo', 'postal_code': '12226880', 'state': 'SP', 'abbreviation_country': 'BR', 'type': 'postal_code', 'lng': -46.63330939999999, 'abbreviation_state': 'SP', 'lat': -23.5505199, 'country': 'Brazil'},
{'locality': 'São Paulo', 'postal_code': '12244011', 'state': 'SP', 'abbreviation_country': 'BR', 'type': 'postal_code', 'lng': -46.63330939999999, 'abbreviation_state': 'SP', 'lat': -23.5505199, 'country': 'Brazil'},
{'address': 'Rua Maurílio Calvo', 'neighborhood': 'Chácaras Pousada do Vale', 'state': 'SP', 'abbreviation_country': 'BR', 'abbreviation_state': 'SP', 'locality': 'São José dos Campos', 'type': 'postal_code', 'lng': -45.7886899, 'postal_code': '12226733', 'lat': -23.2192576, 'country': 'Brazil'},
{'address': 'Rua Maximiano Corrêa dos Santos', 'postal_code': '12248622', 'state': 'SP', 'abbreviation_country': 'BR', 'locality': 'São Paulo', 'type': 'postal_code', 'lng': -46.3768079, 'abbreviation_state': 'SP', 'lat': -23.4937685, 'country': 'Brazil'},
{'address': 'Rua Maximino José de Almeida', 'neighborhood': 'Cidade Morumbi', 'state': 'SP', 'abbreviation_country': 'BR', 'abbreviation_state': 'SP', 'locality': 'São José dos Campos', 'type': 'postal_code', 'lng': -45.9041743, 'postal_code': '12236610', 'lat': -23.2546466, 'country': 'Brazil'},
{'locality': 'São Paulo', 'postal_code': '12244899', 'state': 'SP', 'abbreviation_country': 'BR', 'type': 'postal_code', 'lng': -46.63330939999999, 'abbreviation_state': 'SP', 'lat': -23.5505199, 'country': 'Brazil'},
{'address': 'Travessa Medeiros', 'neighborhood': 'Vila Cristina', 'state': 'SP', 'abbreviation_country': 'BR', 'abbreviation_state': 'SP', 'locality': 'São José dos Campos', 'type': 'postal_code', 'lng': -45.8887537, 'postal_code': '12211124', 'lat': -23.1588233, 'country': 'Brazil'},
{'address': 'Rua Medina', 'neighborhood': 'Vila Iracema', 'state': 'SP', 'abbreviation_country': 'BR', 'abbreviation_state': 'SP', 'locality': 'São José dos Campos', 'type': 'postal_code', 'lng': -45.8287247, 'postal_code': '12228131', 'lat': -23.2484043, 'country': 'Brazil'},
{'address': 'Rua Mehgy Moanna Metene', 'neighborhood': 'Palmeiras de São José', 'state': 'SP', 'abbreviation_country': 'BR', 'abbreviation_state': 'SP', 'locality': 'São José dos Campos', 'type': 'postal_code', 'lng': -45.9151594, 'postal_code': '12237837', 'lat': -23.2392389, 'country': 'Brazil'},
{'address': 'Praça Melvin Jones', 'neighborhood': 'Jardim São Dimas', 'state': 'SP', 'abbreviation_country': 'BR', 'abbreviation_state': 'SP', 'locality': 'São José dos Campos', 'type': 'postal_code', 'lng': -45.8895906, 'postal_code': '12245360', 'lat': -23.1964704, 'country': 'Brazil'},
{'address': 'Rua Mém de Sá', 'neighborhood': 'Jardim Paulista', 'state': 'SP', 'abbreviation_country': 'BR', 'abbreviation_state': 'SP', 'locality': 'São José dos Campos', 'type': 'postal_code', 'lng': -45.8776183, 'postal_code': '12216001', 'lat': -23.1879545, 'country': 'Brazil'},
{'address': 'Rua Menotti Zeccheto', 'neighborhood': 'Jardim Colonial', 'state': 'SP', 'abbreviation_country': 'BR', 'abbreviation_state': 'SP', 'locality': 'São José dos Campos', 'type': 'postal_code', 'lng': -45.8973111, 'postal_code': '12234430', 'lat': -23.2829916, 'country': 'Brazil'},
{'address': 'Rua Mercúrio', 'neighborhood': 'Jardim da Granja', 'state': 'SP', 'abbreviation_country': 'BR', 'abbreviation_state': 'SP', 'locality': 'São José dos Campos', 'type': 'postal_code', 'lng': -45.8577085, 'postal_code': '12227530', 'lat': -23.2068969, 'country': 'Brazil'},
{'address': 'Rua Merida', 'neighborhood': 'Jardim América', 'state': 'SP', 'abbreviation_country': 'BR', 'abbreviation_state': 'SP', 'locality': 'São José dos Campos', 'type': 'postal_code', 'lng': -45.9016688, 'postal_code': '12235400', 'lat': -23.233467, 'country': 'Brazil'},
{'address': 'Rua Mernezília Moreira dos Santos', 'neighborhood': 'Conjunto Residencial Elmano Veloso', 'state': 'SP', 'abbreviation_country': 'BR', 'abbreviation_state': 'SP', 'locality': 'São José dos Campos', 'type': 'postal_code', 'lng': -45.8930982, 'postal_code': '12234680', 'lat': -23.2804193, 'country': 'Brazil'},
{'address': 'Rua Messias de Alvarenga', 'neighborhood': 'Conjunto Residencial Nosso Teto', 'state': 'SP', 'abbreviation_country': 'BR', 'abbreviation_state': 'SP', 'locality': 'São José dos Campos', 'type': 'postal_code', 'lng': -45.8055973, 'postal_code': '12228252', 'lat': -23.2497686, 'country': 'Brazil'},
{'address': 'Rua Messias Palmeira', 'neighborhood': 'ヴィーラ・ド・テゾウロ', 'state': 'SP', 'abbreviation_country': 'BR', 'abbreviation_state': 'SP', 'locality': 'São José dos Campos', 'type': 'postal_code', 'lng': -45.8475929, 'postal_code': '12221260', 'lat': -23.1714141, 'country': 'Brazil'},
{'address': 'Rua Messias Thomaz de Freitas', 'neighborhood': 'Parque dos Ipês', 'state': 'SP', 'abbreviation_country': 'BR', 'abbreviation_state': 'SP', 'locality': 'São José dos Campos', 'type': 'postal_code', 'lng': -45.8959695, 'postal_code': '12236857', 'lat': -23.2642541, 'country': 'Brazil'},
{'address': 'Rua Miguel Arcânjo Alves', 'neighborhood': 'Residencial União', 'state': 'SP', 'abbreviation_country': 'BR', 'abbreviation_state': 'SP', 'locality': 'São José dos Campos', 'type': 'postal_code', 'lng': -45.9031008, 'postal_code': '12239039', 'lat': -23.2658998, 'country': 'Brazil'},
{'locality': 'São Paulo', 'postal_code': '12228288', 'state': 'SP', 'abbreviation_country': 'BR', 'type': 'postal_code', 'lng': -46.63330939999999, 'abbreviation_state': 'SP', 'lat': -23.5505199, 'country': 'Brazil'},
{'address': 'Rua Miguel Batista de Almeida', 'neighborhood': 'Residencial Gazzo', 'state': 'SP', 'abbreviation_country': 'BR', 'abbreviation_state': 'SP', 'locality': 'São José dos Campos', 'type': 'postal_code', 'lng': -45.899021, 'postal_code': '12236848', 'lat': -23.2637072, 'country': 'Brazil'},
{'address': 'Rua Miguel Couto', 'neighborhood': 'Vila Betania', 'state': 'SP', 'abbreviation_country': 'BR', 'abbreviation_state': 'SP', 'locality': 'São José dos Campos', 'type': 'postal_code', 'lng': -45.885624, 'postal_code': '12245524', 'lat': -23.2019908, 'country': 'Brazil'},
{'locality': 'São Paulo', 'postal_code': '12228851', 'state': 'SP', 'abbreviation_country': 'BR', 'type': 'postal_code', 'lng': -46.63330939999999, 'abbreviation_state': 'SP', 'lat': -23.5505199, 'country': 'Brazil'},
{'address': 'Rua Miguel Eras', 'neighborhood': 'Vila Rossi', 'state': 'SP', 'abbreviation_country': 'BR', 'abbreviation_state': 'SP', 'locality': 'São José dos Campos', 'type': 'postal_code', 'lng': -45.8939397, 'postal_code': '12211050', 'lat': -23.1699441, 'country': 'Brazil'},
{'address': 'Rua Doutor Miguel Jansen Filho', 'neighborhood': 'Residencial União', 'state': 'SP', 'abbreviation_country': 'BR', 'abbreviation_state': 'SP', 'locality': 'São José dos Campos', 'type': 'postal_code', 'lng': -45.9054479, 'postal_code': '12239052', 'lat': -23.2641612, 'country': 'Brazil'},
{'address': 'Rua Miguel Neme', 'neighborhood': 'Jardim Castanheira', 'state': 'SP', 'abbreviation_country': 'BR', 'abbreviation_state': 'SP', 'locality': 'São José dos Campos', 'type': 'postal_code', 'lng': -45.7917092, 'postal_code': '12225340', 'lat': -23.1840184, 'country': 'Brazil'},
{'address': 'Rua Miguel Ângelo', 'neighborhood': 'Jardim Oriente', 'state': 'SP', 'abbreviation_country': 'BR', 'abbreviation_state': 'SP', 'locality': 'São José dos Campos', 'type': 'postal_code', 'lng': -45.9024081, 'postal_code': '12236210', 'lat': -23.2436001, 'country': 'Brazil'},
{'address': 'Praça Mikado', 'neighborhood': 'Jardim Oriente', 'state': 'SP', 'abbreviation_country': 'BR', 'abbreviation_state': 'SP', 'locality': 'São José dos Campos', 'type': 'postal_code', 'lng': -45.8961095, 'postal_code': '12236160', 'lat': -23.2416958, 'country': 'Brazil'},
{'address': 'Rua Mikolaj Torba', 'neighborhood': 'Jardim Torrao de Ouro', 'state': 'SP', 'abbreviation_country': 'BR', 'abbreviation_state': 'SP', 'locality': 'São José dos Campos', 'type': 'postal_code', 'lng': -45.8672595, 'postal_code': '12229160', 'lat': -23.2663531, 'country': 'Brazil'},
{'locality': 'São José dos Campos', 'neighborhood': 'Parque Novo Horizonte', 'state': 'SP', 'abbreviation_country': 'BR', 'type': 'postal_code', 'country': 'Brazil', 'lng': -45.7840935, 'abbreviation_state': 'SP', 'lat': -23.1956036, 'postal_code': '12225832'},
{'address': 'Rua Milton Cruz', 'neighborhood': 'ヴィーラ・ド・テゾウロ', 'state': 'SP', 'abbreviation_country': 'BR', 'abbreviation_state': 'SP', 'locality': 'São José dos Campos', 'type': 'postal_code', 'lng': -45.8445454, 'postal_code': '12221200', 'lat': -23.1726853, 'country': 'Brazil'},
{'locality': 'São José dos Campos', 'neighborhood': 'Urbanova', 'state': 'SP', 'abbreviation_country': 'BR', 'type': 'postal_code', 'country': 'Brazil', 'lng': -45.9440393, 'abbreviation_state': 'SP', 'lat': -23.2029368, 'postal_code': '12244867'},
{'locality': 'São Paulo', 'postal_code': '12224785', 'state': 'SP', 'abbreviation_country': 'BR', 'type': 'postal_code', 'lng': -46.63330939999999, 'abbreviation_state': 'SP', 'lat': -23.5505199, 'country': 'Brazil'},
{'address': 'Rua Milton de Andrada', 'neighborhood': 'Conjunto Residencial Elmano Veloso', 'state': 'SP', 'abbreviation_country': 'BR', 'abbreviation_state': 'SP', 'locality': 'São José dos Campos', 'type': 'postal_code', 'lng': -45.8962014, 'postal_code': '12234590', 'lat': -23.2788796, 'country': 'Brazil'},
{'address': 'Rua Milão', 'neighborhood': 'Conjunto Residencial Trinta e Um de Marco', 'state': 'SP', 'abbreviation_country': 'BR', 'abbreviation_state': 'SP', 'locality': 'São José dos Campos', 'type': 'postal_code', 'lng': -45.9118316, 'postal_code': '12237092', 'lat': -23.2437826, 'country': 'Brazil'},
{'address': 'Rua Minas Gerais', 'neighborhood': 'Vila Maria', 'state': 'SP', 'abbreviation_country': 'BR', 'abbreviation_state': 'SP', 'locality': 'São José dos Campos', 'type': 'postal_code', 'lng': -45.8820147, 'postal_code': '12209290', 'lat': -23.1754924, 'country': 'Brazil'},
{'address': 'Ponte Minas Gerais', 'neighborhood': 'Santana', 'state': 'SP', 'abbreviation_country': 'BR', 'abbreviation_state': 'SP', 'locality': 'São José dos Campos', 'type': 'postal_code', 'lng': -45.8984283, 'postal_code': '12211842', 'lat': -23.154291, 'country': 'Brazil'},
{'address': 'Rua Mindanau', 'neighborhood': 'Jardim América', 'state': 'SP', 'abbreviation_country': 'BR', 'abbreviation_state': 'SP', 'locality': 'São José dos Campos', 'type': 'postal_code', 'lng': -45.9004048, 'postal_code': '12235430', 'lat': -23.2351117, 'country': 'Brazil'},
{'address': 'Rua Minervina de Campos Nascimento', 'neighborhood': 'Alto da Ponte', 'state': 'SP', 'abbreviation_country': 'BR', 'abbreviation_state': 'SP', 'locality': 'São José dos Campos', 'type': 'postal_code', 'lng': -45.8994511, 'postal_code': '12212440', 'lat': -23.1502806, 'country': 'Brazil'},
{'address': 'Rua Ministro José Geraldo Rodrigues Alkmin', 'neighborhood': 'Bosque dos Eucaliptos', 'state': 'SP', 'abbreviation_country': 'BR', 'abbreviation_state': 'SP', 'locality': 'São José dos Campos', 'type': 'postal_code', 'lng': -45.8896942, 'postal_code': '12233510', 'lat': -23.2528255, 'country': 'Brazil'},
{'locality': 'São Paulo', 'postal_code': '12236487', 'state': 'SP', 'abbreviation_country': 'BR', 'type': 'postal_code', 'lng': -46.63330939999999, 'abbreviation_state': 'SP', 'lat': -23.5505199, 'country': 'Brazil'},
{'locality': 'São José dos Campos', 'neighborhood': 'Campos de São José', 'state': 'SP', 'abbreviation_country': 'BR', 'type': 'postal_code', 'country': 'Brazil', 'lng': -45.8090269, 'abbreviation_state': 'SP', 'lat': -23.2165668, 'postal_code': '12226380'},
{'address': 'Rua Miracema', 'neighborhood': 'Chácaras Reunidas', 'state': 'SP', 'abbreviation_country': 'BR', 'abbreviation_state': 'SP', 'locality': 'São José dos Campos', 'type': 'postal_code', 'lng': -45.9237203, 'postal_code': '12238360', 'lat': -23.2501118, 'country': 'Brazil'},
{'address': 'Rua Mirassol', 'neighborhood': 'Bosque dos Eucaliptos', 'state': 'SP', 'abbreviation_country': 'BR', 'abbreviation_state': 'SP', 'locality': 'São José dos Campos', 'type': 'postal_code', 'lng': -45.891143, 'postal_code': '12233480', 'lat': -23.2565877, 'country': 'Brazil'},
{'address': 'Rua Mirim', 'neighborhood': 'Parque Nova Esperança', 'state': 'SP', 'abbreviation_country': 'BR', 'abbreviation_state': 'SP', 'locality': 'São José dos Campos', 'type': 'postal_code', 'lng': -45.7737737, 'postal_code': '12226199', 'lat': -23.2012425, 'country': 'Brazil'},
{'address': 'Rua Misael Marçal', 'neighborhood': 'Vila Industrial', 'state': 'SP', 'abbreviation_country': 'BR', 'abbreviation_state': 'SP', 'locality': 'São José dos Campos', 'type': 'postal_code', 'lng': -45.8606197, 'postal_code': '12220340', 'lat': -23.1797233, 'country': 'Brazil'},
{'locality': 'Tambaú', 'neighborhood': 'Loteamento', 'state': 'SP', 'abbreviation_country': 'BR', 'type': 'postal_code', 'country': 'Brazil', 'lng': -47.2526902, 'abbreviation_state': 'SP', 'lat': -21.6953586, 'postal_code': '12226694'},
{'address': 'Rua Moacir de Siqueira', 'neighborhood': 'Jardim São Leopoldo', 'state': 'SP', 'abbreviation_country': 'BR', 'abbreviation_state': 'SP', 'locality': 'São José dos Campos', 'type': 'postal_code', 'lng': -45.8223552, 'postal_code': '12228240', 'lat': -23.241615, 'country': 'Brazil'},
{'address': 'Avenida Moema Resende Viega', 'neighborhood': 'Condomínio Chácara dos Eucaliptos', 'state': 'SP', 'abbreviation_country': 'BR', 'abbreviation_state': 'SP', 'locality': 'São José dos Campos', 'type': 'postal_code', 'lng': -45.9317395, 'postal_code': '12244130', 'lat': -23.1951567, 'country': 'Brazil'},
{'address': 'Rua Mogi Mirim', 'neighborhood': 'Centro', 'state': 'SP', 'abbreviation_country': 'BR', 'abbreviation_state': 'SP', 'locality': 'Catanduva', 'type': 'postal_code', 'lng': -48.9696404, 'postal_code': '12228880', 'lat': -21.1378933, 'country': 'Brazil'},
{'address': 'Rua Mogiana', 'neighborhood': 'Chácaras Reunidas', 'state': 'SP', 'abbreviation_country': 'BR', 'abbreviation_state': 'SP', 'locality': 'São José dos Campos', 'type': 'postal_code', 'lng': -45.9284299, 'postal_code': '12238420', 'lat': -23.2513903, 'country': 'Brazil'},
{'address': 'Avenida dos Eucaliptos', 'neighborhood': 'Indianópolis', 'state': 'SP', 'abbreviation_country': 'BR', 'abbreviation_state': 'SP', 'locality': 'São Paulo', 'type': 'postal_code', 'lng': -46.6697004, 'postal_code': '12232086', 'lat': -23.6095293, 'country': 'Brazil'},
{'locality': 'São Paulo', 'postal_code': '12224460', 'state': 'SP', 'abbreviation_country': 'BR', 'type': 'postal_code', 'lng': -46.63330939999999, 'abbreviation_state': 'SP', 'lat': -23.5505199, 'country': 'Brazil'},
{'locality': 'São Paulo', 'postal_code': '12223211', 'state': 'SP', 'abbreviation_country': 'BR', 'type': 'postal_code', 'lng': -46.63330939999999, 'abbreviation_state': 'SP', 'lat': -23.5505199, 'country': 'Brazil'},
{'address': 'Rua Moisés Tristão dos Santos', 'neighborhood': 'Floradas de São José', 'state': 'SP', 'abbreviation_country': 'BR', 'abbreviation_state': 'SP', 'locality': 'São José dos Campos', 'type': 'postal_code', 'lng': -45.8894644, 'postal_code': '12230087', 'lat': -23.2202382, 'country': 'Brazil'},
{'locality': 'São José dos Campos', 'neighborhood': 'Jardim São Dimas', 'state': 'SP', 'abbreviation_country': 'BR', 'abbreviation_state': 'SP', 'type': 'postal_code', 'lng': -45.8882998, 'postal_code': '12245440', 'lat': -23.1980854, 'country': 'Brazil'},
{'address': 'Rua Monsenhor Siqueira', 'neighborhood': 'Campos Elíseos', 'state': 'SP', 'abbreviation_country': 'BR', 'abbreviation_state': 'SP', 'locality': 'Ribeirão Preto', 'type': 'postal_code', 'lng': -47.8079289, 'postal_code': '12225055', 'lat': -21.1705025, 'country': 'Brazil'},
{'locality': 'São Paulo', 'postal_code': '12242412', 'state': 'SP', 'abbreviation_country': 'BR', 'type': 'postal_code', 'lng': -46.63330939999999, 'abbreviation_state': 'SP', 'lat': -23.5505199, 'country': 'Brazil'},
{'address': 'Praça Monsenhor Luíz Gonzaga Alves Cavalheiro', 'neighborhood': 'Santana', 'state': 'São Paulo', 'abbreviation_country': 'BR', 'abbreviation_state': 'São Paulo', 'locality': 'São José dos Campos', 'type': 'postal_code', 'lng': -45.8967338, 'postal_code': '12211830', 'lat': -23.1595432, 'country': 'Brasil'},